LEAID,NAME,OPSTFIPS,STREET,CITY,STATE,ZIP,STFIP,CNTY,NMCNTY,LAT,LON,CBSA,NMCBSA,CBSATYPE,CSA,NMCSA,NECTA,NMNECTA,CD,SLDL,SLDU,SCHOOLYEAR,LOCALE,LOC_OTHER,LOC_COUNT,LOC_SCH
3600001,DOLGEVILLE CENTRAL SCHOOL DISTRICT,36,38 SLAWSON ST,DOLGEVILLE,NY,13329,36,36043,Herkimer County,43.103969,-74.779021,46540,"Utica-Rome, NY",1,N,N,N,N,3621,36118,36049,2017-2018,42,0.0,1,42
3600002,SAUQUOIT VALLEY CENTRAL SCHOOL DISTRICT,36,2601 ONEIDA ST,SAUQUOIT,NY,13456,36,36065,Oneida County,42.987929,-75.254474,46540,"Utica-Rome, NY",1,N,N,N,N,3622,36101,36047,2017-2018,41,0.0,1,41
3600003,EDWARDS-KNOX CENTRAL SCHOOL DISTRICT,36,2512 COUNTY ROUTE 24,HERMON,NY,13652,36,36089,St. Lawrence County,44.363946,-75.201145,36300,"Ogdensburg-Massena, NY",2,N,N,N,N,3621,36117,36047,2017-2018,43,0.0,1,43
3600004,ROTTERDAM-MOHONASEN CENTRAL SCHOOL DISTRICT,36,2072 CURRY RD,SCHENECTADY,NY,12303,36,36093,Schenectady County,42.768878,-73.956954,10580,"Albany-Schenectady-Troy, NY",1,104,"Albany-Schenectady, NY",N,N,3620,36111,36046,2017-2018,21,0.0,1,21
3600005,BROADALBIN-PERTH CENTRAL SCHOOL DISTRICT,36,20 PINE ST,BROADALBIN,NY,12025,36,36035,Fulton County,43.057500000000005,-74.1876,24100,"Gloversville, NY",2,104,"Albany-Schenectady, NY",N,N,3621,36118,36049,2017-2018,42,0.0,1,42
3600006,CHERRY VALLEY-SPRINGFIELD CENTRAL SCHOOL DISTRICT,36,597 COUNTY HWY 54,CHERRY VALLEY,NY,13320,36,36077,Otsego County,42.817222,-74.768212,36580,"Oneonta, NY",2,N,N,N,N,3619,36102,36051,2017-2018,42,0.0,1,42
3600007,JASPER-TROUPSBURG CENTRAL SCHOOL DISTRICT,36,3769 STATE RT 417,JASPER,NY,14855,36,36101,Steuben County,42.124017,-77.504174,18500,"Corning, NY",2,236,"Elmira-Corning, NY",N,N,3623,36148,36058,2017-2018,43,0.0,1,43
3600008,SOUTH COUNTRY CENTRAL SCHOOL DISTRICT,36,189 DUNTON AVE,EAST PATCHOGUE,NY,11772,36,36103,Suffolk County,40.762179,-72.961686,35620,"New York-Newark-Jersey City, NY-NJ-PA",1,408,"New York-Newark, NY-NJ-CT-PA",N,N,3601,36003,36003,2017-2018,21,0.0,1,21
3600009,SARANAC CENTRAL SCHOOL DISTRICT,36,32 EMMONS ST,DANNEMORA,NY,12929,36,36019,Clinton County,44.7126,-73.72160000000001,38460,"Plattsburgh, NY",2,N,N,N,N,3621,36115,36045,2017-2018,42,22.7,2,"32, 42"
3600010,COBLESKILL-RICHMONDVILLE CENTRAL SCHOOL DISTRICT,36,155 WASHINGTON AVE,COBLESKILL,NY,12043,36,36095,Schoharie County,42.680800000000005,-74.4923,10580,"Albany-Schenectady-Troy, NY",1,104,"Albany-Schenectady, NY",N,N,3619,36102,36051,2017-2018,32,32.58,2,"32, 41"
3600011,WAYLAND-COHOCTON CENTRAL SCHOOL DISTRICT,36,2350 RT 63,WAYLAND,NY,14572,36,36101,Steuben County,42.563533,-77.599798,18500,"Corning, NY",2,236,"Elmira-Corning, NY",N,N,3623,36133,36058,2017-2018,42,0.0,1,42
3600012,BOLIVAR-RICHBURG CENTRAL SCHOOL DISTRICT,36,100 SCHOOL ST,BOLIVAR,NY,14715,36,36003,Allegany County,42.066095,-78.160184,N,N,0,N,N,N,N,3623,36148,36057,2017-2018,42,0.0,1,42
3600013,ONEIDA CITY SCHOOL DISTRICT,36,565 SAYLES ST,ONEIDA,NY,13421,36,36053,Madison County,43.08088,-75.662283,45060,"Syracuse, NY",1,532,"Syracuse-Auburn, NY",N,N,3622,36121,36053,2017-2018,32,0.0,1,32
3600014,WATERLOO CENTRAL SCHOOL DISTRICT,36,109 WASHINGTON ST,WATERLOO,NY,13165,36,36099,Seneca County,42.896766,-76.86148800000001,42900,"Seneca Falls, NY",2,464,"Rochester-Batavia-Seneca Falls, NY",N,N,3623,36131,36054,2017-2018,32,0.0,1,32
3600015,ALLEGANY-LIMESTONE CENTRAL SCHOOL DISTRICT,36,3131 FIVE MILE RD,ALLEGANY,NY,14706,36,36009,Cattaraugus County,42.132045000000005,-78.503884,36460,"Olean, NY",2,160,"Buffalo-Cheektowaga, NY",N,N,3623,36148,36057,2017-2018,41,43.97,2,"33, 41"
3600016,AVERILL PARK CENTRAL SCHOOL DISTRICT,36,146 GETTLE RD-ST 1,AVERILL PARK,NY,12018,36,36083,Rensselaer County,42.644669,-73.572643,10580,"Albany-Schenectady-Troy, NY",1,104,"Albany-Schenectady, NY",N,N,3619,36107,36043,2017-2018,41,0.0,1,41
3600017,GENESEE VALLEY CENTRAL SCHOOL DISTRICT,36,1 JAGUAR DR,BELMONT,NY,14813,36,36003,Allegany County,42.233545,-78.032058,N,N,0,N,N,N,N,3623,36148,36057,2017-2018,42,0.0,1,42
3600018,CHAUTAUQUA LAKE CENTRAL SCHOOL DISTRICT,36,100 N ERIE ST,MAYVILLE,NY,14757,36,36013,Chautauqua County,42.257696,-79.51422000000001,27460,"Jamestown-Dunkirk-Fredonia, NY",2,N,N,N,N,3623,36150,36057,2017-2018,42,0.0,1,42
3600019,UNADILLA VALLEY CENTRAL SCHOOL DISTRICT,36,4238 STATE HWY 8,NEW BERLIN,NY,13411,36,36017,Chenango County,42.581228,-75.334456,N,N,0,N,N,N,N,3622,36122,36051,2017-2018,42,0.0,1,42
3600020,CAMPBELL-SAVONA CENTRAL SCHOOL DISTRICT,36,8455 COUNTY RT 125,CAMPBELL,NY,14821,36,36101,Steuben County,42.236135,-77.200193,18500,"Corning, NY",2,236,"Elmira-Corning, NY",N,N,3623,36132,36058,2017-2018,42,0.0,1,42
3600021,MATTITUCK-CUTCHOGUE UNION FREE SCHOOL DISTRICT,36,385 DEPOT LN,CUTCHOGUE,NY,11935,36,36103,Suffolk County,41.0139,-72.4851,35620,"New York-Newark-Jersey City, NY-NJ-PA",1,408,"New York-Newark, NY-NJ-CT-PA",N,N,3601,36002,36001,2017-2018,21,0.0,1,21
3600023,SULLIVAN WEST CENTRAL SCHOOL DISTRICT,36,33 SCHOOLHOUSE RD,JEFFERSONVILLE,NY,12748,36,36105,Sullivan County,41.779854,-74.940064,N,N,0,N,N,N,N,3619,36100,36042,2017-2018,42,0.0,1,42
3600024,CATTARAUGUS-LITTLE VALLEY CENTRAL SCHOOL DISTRICT,36,25 N FRANKLIN ST,CATTARAUGUS,NY,14719,36,36009,Cattaraugus County,42.333934,-78.859948,36460,"Olean, NY",2,160,"Buffalo-Cheektowaga, NY",N,N,3623,36148,36057,2017-2018,42,0.0,1,42
3600025,CHARTER SCHOOL FOR APPLIED TECHNOLOGIES,36,2303 KENMORE AVE,BUFFALO,NY,14207,36,36029,Erie County,42.967047,-78.89846200000001,15380,"Buffalo-Cheektowaga-Niagara Falls, NY",1,160,"Buffalo-Cheektowaga, NY",N,N,3626,36140,36060,2017-2018,21,0.0,1,21
3600026,EUGENIO MARIA DE HOSTOS CHARTER SCHOOL,36,27 ZIMBRICH ST,ROCHESTER,NY,14621,36,36055,Monroe County,43.18287,-77.609451,40380,"Rochester, NY",1,464,"Rochester-Batavia-Seneca Falls, NY",N,N,3625,36137,36056,2017-2018,12,0.0,1,12
3600029,GENESEE COMMUNITY CHARTER SCHOOL,36,657 EAST AVE,ROCHESTER,NY,14607,36,36055,Monroe County,43.153155,-77.587491,40380,"Rochester, NY",1,464,"Rochester-Batavia-Seneca Falls, NY",N,N,3625,36138,36055,2017-2018,12,0.0,1,12
3600030,ROOSEVELT CHILDREN'S ACADEMY CHARTER SCHOOL,36,105 PLEASANT AVE,ROOSEVELT,NY,11575,36,36059,Nassau County,40.674358,-73.584755,35620,"New York-Newark-Jersey City, NY-NJ-PA",1,408,"New York-Newark, NY-NJ-CT-PA",N,N,3604,36018,36008,2017-2018,21,0.0,1,21
3600032,BRIGHTER CHOICE CHARTER SCHOOL FOR BOYS,36,116 N LAKE AVE,ALBANY,NY,12206,36,36001,Albany County,42.664159000000005,-73.77013000000001,10580,"Albany-Schenectady-Troy, NY",1,104,"Albany-Schenectady, NY",N,N,3620,36108,36044,2017-2018,13,0.0,1,13
3600033,BRIGHTER CHOICE CHARTER SCHOOL FOR GIRLS,36,250 CENTRAL AVE,ALBANY,NY,12206,36,36001,Albany County,42.663125,-73.771242,10580,"Albany-Schenectady-Troy, NY",1,104,"Albany-Schenectady, NY",N,N,3620,36108,36044,2017-2018,13,0.0,1,13
3600035,KING CENTER CHARTER SCHOOL,36,156 NEWBURGH AVE,BUFFALO,NY,14211,36,36029,Erie County,42.918918000000005,-78.809205,15380,"Buffalo-Cheektowaga-Niagara Falls, NY",1,160,"Buffalo-Cheektowaga, NY",N,N,3626,36141,36063,2017-2018,11,0.0,1,11
3600036,SOUTH BUFFALO CHARTER SCHOOL,36,154 S OGDEN ST,BUFFALO,NY,14210,36,36029,Erie County,42.86347,-78.805201,15380,"Buffalo-Cheektowaga-Niagara Falls, NY",1,160,"Buffalo-Cheektowaga, NY",N,N,3626,36142,36063,2017-2018,11,0.0,1,11
3600038,TAPESTRY CHARTER SCHOOL,36,65 GREAT ARROW AVE,BUFFALO,NY,14216,36,36029,Erie County,42.942751,-78.870338,15380,"Buffalo-Cheektowaga-Niagara Falls, NY",1,160,"Buffalo-Cheektowaga, NY",N,N,3626,36149,36060,2017-2018,11,0.0,1,11
3600039,AMBER CHARTER SCHOOL,36,220 E 106TH ST,NEW YORK,NY,10029,36,36061,New York County,40.790947,-73.94389100000001,35620,"New York-Newark-Jersey City, NY-NJ-PA",1,408,"New York-Newark, NY-NJ-CT-PA",N,N,3613,36068,36029,2017-2018,11,0.0,1,11
3600042,BRONX PREPARATORY CHARTER SCHOOL,36,3872 3RD AVE,BRONX,NY,10457,36,36005,Bronx County,40.838976,-73.900102,35620,"New York-Newark-Jersey City, NY-NJ-PA",1,408,"New York-Newark, NY-NJ-CT-PA",N,N,3615,36079,36033,2017-2018,11,0.0,1,11
3600045,BROOKLYN CHARTER SCHOOL (THE),36,545 WILLOUGHBY AVE,BROOKLYN,NY,11206,36,36047,Kings County,40.694239,-73.94783,35620,"New York-Newark-Jersey City, NY-NJ-PA",1,408,"New York-Newark, NY-NJ-CT-PA",N,N,3608,36056,36025,2017-2018,11,0.0,1,11
3600046,COMMUNITY PARTNERSHIP CHARTER SCHOOL,36,241 EMERSON PL,BROOKLYN,NY,11205,36,36047,Kings County,40.691011,-73.961346,35620,"New York-Newark-Jersey City, NY-NJ-PA",1,408,"New York-Newark, NY-NJ-CT-PA",N,N,3608,36057,36025,2017-2018,11,0.0,1,11
3600047,HARBOR SCIENCE AND ARTS CHARTER SCHOOL,36,132-142 E 111TH ST,NEW YORK,NY,10029,36,36061,New York County,40.79554,-73.944543,35620,"New York-Newark-Jersey City, NY-NJ-PA",1,408,"New York-Newark, NY-NJ-CT-PA",N,N,3613,36068,36029,2017-2018,11,0.0,1,11
3600048,HARRIET TUBMAN CHARTER SCHOOL,36,3565 3RD AVE,BRONX,NY,10456,36,36005,Bronx County,40.832184,-73.905563,35620,"New York-Newark-Jersey City, NY-NJ-PA",1,408,"New York-Newark, NY-NJ-CT-PA",N,N,3615,36079,36032,2017-2018,11,0.0,1,11
3600049,ICAHN CHARTER SCHOOL 1,36,1525 BROOK AVE,BRONX,NY,10457,36,36005,Bronx County,40.839151,-73.905106,35620,"New York-Newark-Jersey City, NY-NJ-PA",1,408,"New York-Newark, NY-NJ-CT-PA",N,N,3615,36077,36033,2017-2018,11,0.0,1,11
3600053,JOHN V LINDSAY WILDCAT ACADEMY CHARTER SCHOOL,36,17 BATTERY PL,NEW YORK,NY,10004,36,36061,New York County,40.7057,-74.016041,35620,"New York-Newark-Jersey City, NY-NJ-PA",1,408,"New York-Newark, NY-NJ-CT-PA",N,N,3610,36065,36026,2017-2018,11,0.0,1,11
3600054,KIPP ACADEMY CHARTER SCHOOL,36,250 E 156TH ST-4TH FL,BRONX,NY,10451,36,36005,Bronx County,40.822773,-73.92160700000001,35620,"New York-Newark-Jersey City, NY-NJ-PA",1,408,"New York-Newark, NY-NJ-CT-PA",N,N,3615,36079,36029,2017-2018,11,0.0,1,11
3600055,MERRICK ACADEMY-QUEENS PUBLIC CHARTER SCHOOL,36,136-25 218TH ST,SPRINGFIELD GARDENS,NY,11413,36,36081,Queens County,40.676288,-73.75307000000001,35620,"New York-Newark-Jersey City, NY-NJ-PA",1,408,"New York-Newark, NY-NJ-CT-PA",N,N,3605,36029,36014,2017-2018,11,0.0,1,11
3600057,OUR WORLD NEIGHBORHOOD CHARTER SCHOOL,36,36-12 35TH AVE,ASTORIA,NY,11106,36,36081,Queens County,40.755821000000005,-73.92415100000001,35620,"New York-Newark-Jersey City, NY-NJ-PA",1,408,"New York-Newark, NY-NJ-CT-PA",N,N,3612,36030,36012,2017-2018,11,0.0,1,11
3600059,RENAISSANCE CHARTER SCHOOL,36,35-59 81ST ST,JACKSON HEIGHTS,NY,11372,36,36081,Queens County,40.749882,-73.885101,35620,"New York-Newark-Jersey City, NY-NJ-PA",1,408,"New York-Newark, NY-NJ-CT-PA",N,N,3614,36039,36013,2017-2018,11,0.0,1,11
3600060,RIVERHEAD CHARTER SCHOOL,36,3685 MIDDLE COUNTRY RD,CALVERTON,NY,11933,36,36103,Suffolk County,40.924703,-72.744581,35620,"New York-Newark-Jersey City, NY-NJ-PA",1,408,"New York-Newark, NY-NJ-CT-PA",N,N,3601,36002,36001,2017-2018,41,0.0,1,41
3600061,SISULU-WALKER CHARTER SCHOOL OF HARLEM,36,125 W 115TH ST,NEW YORK,NY,10026,36,36061,New York County,40.802065,-73.951362,35620,"New York-Newark-Jersey City, NY-NJ-PA",1,408,"New York-Newark, NY-NJ-CT-PA",N,N,3613,36070,36030,2017-2018,11,0.0,1,11
3600063,BRONX CHARTER SCHOOL FOR THE ARTS,36,950 LONGFELLOW AVE,BRONX,NY,10474,36,36005,Bronx County,40.821821,-73.886466,35620,"New York-Newark-Jersey City, NY-NJ-PA",1,408,"New York-Newark, NY-NJ-CT-PA",N,N,3615,36085,36034,2017-2018,11,0.0,1,11
3600066,FAMILY LIFE ACADEMY CHARTER SCHOOL I,36,14 W 170TH ST,BRONX,NY,10452,36,36005,Bronx County,40.840247,-73.918591,35620,"New York-Newark-Jersey City, NY-NJ-PA",1,408,"New York-Newark, NY-NJ-CT-PA",N,N,3615,36084,36029,2017-2018,11,0.0,1,11
3600067,GLOBAL CONCEPTS CHARTER SCHOOL,36,1001 RIDGE RD,LACKAWANNA,NY,14218,36,36029,Erie County,42.826514,-78.81445000000001,15380,"Buffalo-Cheektowaga-Niagara Falls, NY",1,160,"Buffalo-Cheektowaga, NY",N,N,3626,36142,36063,2017-2018,21,0.0,1,21
3600068,HARLEM PREP CHARTER SCHOOL,36,240 E 123RD ST-1ST FL,NEW YORK,NY,10035,36,36061,New York County,40.801566,-73.935357,35620,"New York-Newark-Jersey City, NY-NJ-PA",1,408,"New York-Newark, NY-NJ-CT-PA",N,N,3613,36068,36030,2017-2018,11,0.0,1,11
3600070,SOUTHSIDE ACADEMY CHARTER SCHOOL,36,2200 ONONDAGA CREEK BLVD,SYRACUSE,NY,13207,36,36067,Onondaga County,43.0122,-76.154739,45060,"Syracuse, NY",1,532,"Syracuse-Auburn, NY",N,N,3624,36128,36053,2017-2018,12,0.0,1,12
3600071,BUFFALO UNITED CHARTER SCHOOL,36,325 MANHATTAN AVE,BUFFALO,NY,14214,36,36029,Erie County,42.941577,-78.828329,15380,"Buffalo-Cheektowaga-Niagara Falls, NY",1,160,"Buffalo-Cheektowaga, NY",N,N,3626,36141,36063,2017-2018,11,0.0,1,11
3600073,ENTERPRISE CHARTER SCHOOL,36,275 OAK ST,BUFFALO,NY,14203,36,36029,Erie County,42.8887,-78.86944100000001,15380,"Buffalo-Cheektowaga-Niagara Falls, NY",1,160,"Buffalo-Cheektowaga, NY",N,N,3626,36141,36063,2017-2018,11,0.0,1,11
3600076,NEW YORK CITY GEOGRAPHIC DISTRICT # 1,36,166 ESSEX ST,NEW YORK,NY,10002,36,36061,New York County,40.721263,-73.986337,35620,"New York-Newark-Jersey City, NY-NJ-PA",1,408,"New York-Newark, NY-NJ-CT-PA",N,N,3612,36065,36026,2017-2018,11,0.0,1,11
3600077,NEW YORK CITY GEOGRAPHIC DISTRICT # 2,36,333 7TH AVE-7TH FL,NEW YORK,NY,10001,36,36061,New York County,40.7476,-73.9931,35620,"New York-Newark-Jersey City, NY-NJ-PA",1,408,"New York-Newark, NY-NJ-CT-PA",N,N,3612,36075,36027,2017-2018,11,0.0,1,11
3600078,NEW YORK CITY GEOGRAPHIC DISTRICT # 3,36,154 W 93RD ST,NEW YORK,NY,10025,36,36061,New York County,40.791542,-73.970912,35620,"New York-Newark-Jersey City, NY-NJ-PA",1,408,"New York-Newark, NY-NJ-CT-PA",N,N,3610,36069,36030,2017-2018,11,0.0,1,11
3600079,NEW YORK CITY GEOGRAPHIC DISTRICT # 4,36,319 E 117TH ST,NEW YORK,NY,10035,36,36061,New York County,40.797412,-73.936002,35620,"New York-Newark-Jersey City, NY-NJ-PA",1,408,"New York-Newark, NY-NJ-CT-PA",N,N,3613,36068,36029,2017-2018,11,0.0,1,11
3600080,HARLEM VILLAGE ACADEMY CHARTER SCHOOL,36,244 W 144 ST-4TH FL,NEW YORK,NY,10030,36,36061,New York County,40.821407,-73.941061,35620,"New York-Newark-Jersey City, NY-NJ-PA",1,408,"New York-Newark, NY-NJ-CT-PA",N,N,3613,36070,36030,2017-2018,11,0.0,1,11
3600081,NEW YORK CITY GEOGRAPHIC DISTRICT # 5,36,425 W 123RD ST,NEW YORK,NY,10027,36,36061,New York County,40.810747,-73.956101,35620,"New York-Newark-Jersey City, NY-NJ-PA",1,408,"New York-Newark, NY-NJ-CT-PA",N,N,3613,36069,36030,2017-2018,11,0.0,1,11
3600082,KIPP STAR COLLEGE PREP CHARTER,36,433 W 123RD ST-4TH FL,NEW YORK,NY,10027,36,36061,New York County,40.810752,-73.956087,35620,"New York-Newark-Jersey City, NY-NJ-PA",1,408,"New York-Newark, NY-NJ-CT-PA",N,N,3613,36069,36030,2017-2018,11,0.0,1,11
3600083,NEW YORK CITY GEOGRAPHIC DISTRICT # 6,36,4360 BROADWAY-RM 527,NEW YORK,NY,10033,36,36061,New York County,40.853396,-73.933473,35620,"New York-Newark-Jersey City, NY-NJ-PA",1,408,"New York-Newark, NY-NJ-CT-PA",N,N,3613,36072,36031,2017-2018,11,0.0,1,11
3600084,NEW YORK CITY GEOGRAPHIC DISTRICT # 7,36,501 COURTLAND AVE,BRONX,NY,10451,36,36005,Bronx County,40.8154,-73.9201,35620,"New York-Newark-Jersey City, NY-NJ-PA",1,408,"New York-Newark, NY-NJ-CT-PA",N,N,3615,36084,36029,2017-2018,11,0.0,1,11
3600085,NEW YORK CITY GEOGRAPHIC DISTRICT # 8,36,601 STICKBALL BLVD,BRONX,NY,10473,36,36005,Bronx County,40.81855,-73.856798,35620,"New York-Newark-Jersey City, NY-NJ-PA",1,408,"New York-Newark, NY-NJ-CT-PA",N,N,3615,36087,36034,2017-2018,11,0.0,1,11
3600086,NEW YORK CITY GEOGRAPHIC DISTRICT # 9,36,450 ST PAUL'S PL-RM 204,BRONX,NY,10456,36,36005,Bronx County,40.836153,-73.904915,35620,"New York-Newark-Jersey City, NY-NJ-PA",1,408,"New York-Newark, NY-NJ-CT-PA",N,N,3615,36079,36033,2017-2018,11,0.0,1,11
3600087,NEW YORK CITY GEOGRAPHIC DISTRICT #10,36,1 FORDHAM PLAZA-RM 813,BRONX,NY,10458,36,36005,Bronx County,40.860614,-73.89012600000001,35620,"New York-Newark-Jersey City, NY-NJ-PA",1,408,"New York-Newark, NY-NJ-CT-PA",N,N,3615,36078,36034,2017-2018,11,0.0,1,11
3600088,NEW YORK CITY GEOGRAPHIC DISTRICT #11,36,2750 THROOP AVE,BRONX,NY,10469,36,36005,Bronx County,40.866994,-73.850708,35620,"New York-Newark-Jersey City, NY-NJ-PA",1,408,"New York-Newark, NY-NJ-CT-PA",N,N,3614,36080,36036,2017-2018,11,0.0,1,11
3600089,BRONX CHARTER SCHOOL FOR BETTER LEARNING,36,3740 BAYCHESTER AVE ANNEX,BRONX,NY,10466,36,36005,Bronx County,40.884191,-73.839693,35620,"New York-Newark-Jersey City, NY-NJ-PA",1,408,"New York-Newark, NY-NJ-CT-PA",N,N,3616,36083,36036,2017-2018,11,0.0,1,11
3600090,NEW YORK CITY GEOGRAPHIC DISTRICT #12,36,1434 LONGFELLOW AVE,BRONX,NY,10459,36,36005,Bronx County,40.8309,-73.8873,35620,"New York-Newark-Jersey City, NY-NJ-PA",1,408,"New York-Newark, NY-NJ-CT-PA",N,N,3615,36085,36032,2017-2018,11,0.0,1,11
3600091,NEW YORK CITY GEOGRAPHIC DISTRICT #13,36,355 PARK AVE,BROOKLYN,NY,11238,36,36047,Kings County,40.695884,-73.962953,35620,"New York-Newark-Jersey City, NY-NJ-PA",1,408,"New York-Newark, NY-NJ-CT-PA",N,N,3607,36050,36025,2017-2018,11,0.0,1,11
3600092,NEW YORK CITY GEOGRAPHIC DISTRICT #15,36,131 LIVINGSTON AVE-RM 301,BROOKLYN,NY,11201,36,36047,Kings County,40.6907,-73.9885,35620,"New York-Newark-Jersey City, NY-NJ-PA",1,408,"New York-Newark, NY-NJ-CT-PA",N,N,3607,36052,36025,2017-2018,11,0.0,1,11
3600094,NEW YORK CITY GEOGRAPHIC DISTRICT #16,36,1010 LAFAYETTE AVE,BROOKLYN,NY,11221,36,36047,Kings County,40.691907,-73.931465,35620,"New York-Newark-Jersey City, NY-NJ-PA",1,408,"New York-Newark, NY-NJ-CT-PA",N,N,3608,36056,36025,2017-2018,11,0.0,1,11
3600095,NEW YORK CITY GEOGRAPHIC DISTRICT #17,36,1224 PARK PL,BROOKLYN,NY,11213,36,36047,Kings County,40.672436000000005,-73.93722100000001,35620,"New York-Newark-Jersey City, NY-NJ-PA",1,408,"New York-Newark, NY-NJ-CT-PA",N,N,3609,36056,36025,2017-2018,11,0.0,1,11
3600096,NEW YORK CITY GEOGRAPHIC DISTRICT #18,36,1106 E 95TH ST,BROOKLYN,NY,11236,36,36047,Kings County,40.64326,-73.903321,35620,"New York-Newark-Jersey City, NY-NJ-PA",1,408,"New York-Newark, NY-NJ-CT-PA",N,N,3608,36059,36019,2017-2018,11,0.0,1,11
3600097,NEW YORK CITY GEOGRAPHIC DISTRICT #32,36,797 BUSHWICK AVE,BROOKLYN,NY,11221,36,36047,Kings County,40.695319000000005,-73.92751700000001,35620,"New York-Newark-Jersey City, NY-NJ-PA",1,408,"New York-Newark, NY-NJ-CT-PA",N,N,3607,36054,36018,2017-2018,11,0.0,1,11
3600098,NEW YORK CITY GEOGRAPHIC DISTRICT #24,36,98-50 50TH AVE-RM 102,CORONA,NY,11368,36,36081,Queens County,40.742409,-73.862942,35620,"New York-Newark-Jersey City, NY-NJ-PA",1,408,"New York-Newark, NY-NJ-CT-PA",N,N,3614,36039,36013,2017-2018,11,0.0,1,11
3600099,NEW YORK CITY GEOGRAPHIC DISTRICT #26,36,61-15 OCEANIA ST,BAYSIDE,NY,11361,36,36081,Queens County,40.745138,-73.766806,35620,"New York-Newark-Jersey City, NY-NJ-PA",1,408,"New York-Newark, NY-NJ-CT-PA",N,N,3606,36025,36016,2017-2018,11,0.0,1,11
3600100,NEW YORK CITY GEOGRAPHIC DISTRICT #28,36,90-27 SUTPHIN BLVD,JAMAICA,NY,11435,36,36081,Queens County,40.70242,-73.807744,35620,"New York-Newark-Jersey City, NY-NJ-PA",1,408,"New York-Newark, NY-NJ-CT-PA",N,N,3605,36032,36014,2017-2018,11,0.0,1,11
3600101,NEW YORK CITY GEOGRAPHIC DISTRICT #29,36,222-14 JAMAICA AVE-RM 217,QUEENS VILLAGE,NY,11428,36,36081,Queens County,40.720784,-73.731493,35620,"New York-Newark-Jersey City, NY-NJ-PA",1,408,"New York-Newark, NY-NJ-CT-PA",N,N,3605,36033,36014,2017-2018,11,0.0,1,11
3600102,NEW YORK CITY GEOGRAPHIC DISTRICT #30,36,28-11 QUEENS PLZ N,LONG ISLAND CITY,NY,11101,36,36081,Queens County,40.750317,-73.938125,35620,"New York-Newark-Jersey City, NY-NJ-PA",1,408,"New York-Newark, NY-NJ-CT-PA",N,N,3612,36037,36012,2017-2018,11,0.0,1,11
3600103,NEW YORK CITY GEOGRAPHIC DISTRICT #31,36,715 OCEAN TERR-RM 129,STATEN ISLAND,NY,10301,36,36085,Richmond County,40.6074,-74.1015,35620,"New York-Newark-Jersey City, NY-NJ-PA",1,408,"New York-Newark, NY-NJ-CT-PA",N,N,3611,36063,36024,2017-2018,11,0.0,1,11
3600104,SYRACUSE ACADEMY OF SCIENCE CHARTER SCHOOL,36,1001 PARK AVE,SYRACUSE,NY,13204,36,36067,Onondaga County,43.052117,-76.180006,45060,"Syracuse, NY",1,532,"Syracuse-Auburn, NY",N,N,3624,36129,36053,2017-2018,12,0.0,1,12
3600105,BUFFALO ACADEMY OF SCIENCE CHARTER SCHOOL,36,190 FRANKLIN ST,BUFFALO,NY,14202,36,36029,Erie County,42.888506,-78.87616200000001,15380,"Buffalo-Cheektowaga-Niagara Falls, NY",1,160,"Buffalo-Cheektowaga, NY",N,N,3626,36149,36063,2017-2018,11,0.0,1,11
3600106,WESTERN NEW YORK MARITIME CHARTER SCHOOL,36,266 GENESEE ST,BUFFALO,NY,14204,36,36029,Erie County,42.892145,-78.865071,15380,"Buffalo-Cheektowaga-Niagara Falls, NY",1,160,"Buffalo-Cheektowaga, NY",N,N,3626,36141,36063,2017-2018,11,0.0,1,11
3600107,WESTMINSTER COMMUNITY CHARTER SCHOOL,36,24 WESTMINSTER AVE,BUFFALO,NY,14215,36,36029,Erie County,42.939667,-78.81265,15380,"Buffalo-Cheektowaga-Niagara Falls, NY",1,160,"Buffalo-Cheektowaga, NY",N,N,3626,36141,36063,2017-2018,11,0.0,1,11
3600108,HARLEM CHILDREN'S ZONE PROMISE ACADEMY CHARTER SCHOOL,36,245 W 129TH ST,NEW YORK,NY,10027,36,36061,New York County,40.81243,-73.948162,35620,"New York-Newark-Jersey City, NY-NJ-PA",1,408,"New York-Newark, NY-NJ-CT-PA",N,N,3613,36070,36030,2017-2018,11,0.0,1,11
3600109,OPPORTUNITY CHARTER SCHOOL,36,240 W 113TH ST-4TH FL,NEW YORK,NY,10026,36,36061,New York County,40.80176,-73.955596,35620,"New York-Newark-Jersey City, NY-NJ-PA",1,408,"New York-Newark, NY-NJ-CT-PA",N,N,3613,36070,36030,2017-2018,11,0.0,1,11
3600110,BRONX CHARTER SCHOOL FOR CHILDREN (THE),36,388 WILLIS AVE,BRONX,NY,10454,36,36005,Bronx County,40.812593,-73.919936,35620,"New York-Newark-Jersey City, NY-NJ-PA",1,408,"New York-Newark, NY-NJ-CT-PA",N,N,3615,36084,36029,2017-2018,11,0.0,1,11
3600111,BRONX LIGHTHOUSE CHARTER SCHOOL,36,1001 INTERVALE AVE,BRONX,NY,10459,36,36005,Bronx County,40.823208,-73.8972,35620,"New York-Newark-Jersey City, NY-NJ-PA",1,408,"New York-Newark, NY-NJ-CT-PA",N,N,3615,36079,36032,2017-2018,11,0.0,1,11
3600112,GRAND CONCOURSE ACADEMY CHARTER SCHOOL,36,925 HUTCHINSON PARKWAY,BRONX,NY,10465,36,36005,Bronx County,40.825686000000005,-73.83809600000001,35620,"New York-Newark-Jersey City, NY-NJ-PA",1,408,"New York-Newark, NY-NJ-CT-PA",N,N,3614,36082,36034,2017-2018,11,0.0,1,11
3600113,BRONX CHARTER SCHOOL FOR EXCELLENCE,36,1960 BENEDICT AVE,BRONX,NY,10462,36,36005,Bronx County,40.834097,-73.858613,35620,"New York-Newark-Jersey City, NY-NJ-PA",1,408,"New York-Newark, NY-NJ-CT-PA",N,N,3615,36087,36032,2017-2018,11,0.0,1,11
3600114,EXCELLENCE BOYS CHARTER SCHOOL OF BEDFORD STUYVESANT,36,225 PATCHEN AVE,BROOKLYN,NY,11233,36,36047,Kings County,40.683435,-73.92583,35620,"New York-Newark-Jersey City, NY-NJ-PA",1,408,"New York-Newark, NY-NJ-CT-PA",N,N,3608,36056,36025,2017-2018,11,0.0,1,11
3600115,WILLIAMSBURG CHARTER HIGH SCHOOL,36,198 VARET ST,BROOKLYN,NY,11206,36,36047,Kings County,40.703553,-73.93587600000001,35620,"New York-Newark-Jersey City, NY-NJ-PA",1,408,"New York-Newark, NY-NJ-CT-PA",N,N,3607,36053,36018,2017-2018,11,0.0,1,11
3600116,BROOKLYN EXCELSIOR CHARTER SCHOOL,36,856 QUINCY ST,BROOKLYN,NY,11221,36,36047,Kings County,40.689731,-73.925166,35620,"New York-Newark-Jersey City, NY-NJ-PA",1,408,"New York-Newark, NY-NJ-CT-PA",N,N,3608,36056,36025,2017-2018,11,0.0,1,11
3600118,PENINSULA PREPARATORY ACADEMY CHARTER SCHOOL,36,611 BEACH 19TH ST,FAR ROCKAWAY,NY,11691,36,36081,Queens County,40.60114,-73.75209100000001,35620,"New York-Newark-Jersey City, NY-NJ-PA",1,408,"New York-Newark, NY-NJ-CT-PA",N,N,3605,36023,36010,2017-2018,11,0.0,1,11
3600119,NEW YORK CITY GEOGRAPHIC DISTRICT #14,36,215 HEYWARD ST,BROOKLYN,NY,11206,36,36047,Kings County,40.703857,-73.953432,35620,"New York-Newark-Jersey City, NY-NJ-PA",1,408,"New York-Newark, NY-NJ-CT-PA",N,N,3607,36050,36026,2017-2018,11,0.0,1,11
3600120,NEW YORK CITY GEOGRAPHIC DISTRICT #19,36,557 PENNSYLVANIA AVE,BROOKLYN,NY,11207,36,36047,Kings County,40.663773,-73.89328,35620,"New York-Newark-Jersey City, NY-NJ-PA",1,408,"New York-Newark, NY-NJ-CT-PA",N,N,3608,36060,36019,2017-2018,11,0.0,1,11
3600121,NEW YORK CITY GEOGRAPHIC DISTRICT #23,36,2021 BERGEN ST,BROOKLYN,NY,11233,36,36047,Kings County,40.674482000000005,-73.913259,35620,"New York-Newark-Jersey City, NY-NJ-PA",1,408,"New York-Newark, NY-NJ-CT-PA",N,N,3608,36055,36019,2017-2018,11,0.0,1,11
3600122,NEW YORK CITY GEOGRAPHIC DISTRICT #25,36,30-48 LINDEN PL,FLUSHING,NY,11354,36,36081,Queens County,40.769639,-73.833251,35620,"New York-Newark-Jersey City, NY-NJ-PA",1,408,"New York-Newark, NY-NJ-CT-PA",N,N,3606,36040,36011,2017-2018,11,0.0,1,11
3600123,NEW YORK CITY GEOGRAPHIC DISTRICT #27,36,82-01 ROCKAWAY BLVD-RM 460,OZONE PARK,NY,11416,36,36081,Queens County,40.6842,-73.8583,35620,"New York-Newark-Jersey City, NY-NJ-PA",1,408,"New York-Newark, NY-NJ-CT-PA",N,N,3607,36038,36015,2017-2018,11,0.0,1,11
3600124,CANISTEO-GREENWOOD CSD,36,84 GREENWOOD ST,CANISTEO,NY,14823,36,36101,Steuben County,42.265564000000005,-77.609318,18500,"Corning, NY",2,236,"Elmira-Corning, NY",N,N,3623,36132,36058,2017-2018,41,0.0,1,41
3600125,EASTPORT-SOUTH MANOR CSD,36,149 DAYTON AVE,MANORVILLE,NY,11949,36,36103,Suffolk County,40.839502,-72.827134,35620,"New York-Newark-Jersey City, NY-NJ-PA",1,408,"New York-Newark, NY-NJ-CT-PA",N,N,3601,36002,36001,2017-2018,21,0.0,1,21
3600126,NEW YORK STATE DEPARTMENT OF CORRECTIONS,36,1220 WASHINGTON AVE BLDG  2,ALBANY,NY,12226,36,36001,Albany County,42.680684,-73.81136000000001,10580,"Albany-Schenectady-Troy, NY",1,104,"Albany-Schenectady, NY",N,N,3620,36109,36044,2017-2018,13,0.0,1,13
3600127,NEW YORK STATE OFFICE MENTAL HEALTH (OMH),36,44 HOLLAND AVE,ALBANY,NY,12208,36,36001,Albany County,42.64786,-73.774181,10580,"Albany-Schenectady-Troy, NY",1,104,"Albany-Schenectady, NY",N,N,3620,36109,36044,2017-2018,11,69.5,5,"11, 12, 13, 21, 41"
3600128,KIPP TECH VALLEY CHARTER SCHOOL,36,321 NORTHERN BLVD,ALBANY,NY,12201,36,36001,Albany County,42.669695,-73.755746,10580,"Albany-Schenectady-Troy, NY",1,104,"Albany-Schenectady, NY",N,N,3620,36108,36044,2017-2018,13,0.0,1,13
3600131,NEW YORK STATE OFFICE OF CHILDREN AND FAMILY SERVICES (OCFS),36,CAPITAL VIEW OFFICE PARK,RENSSELAER,NY,12144,36,36083,Rensselaer County,42.6393,-73.7435,10580,"Albany-Schenectady-Troy, NY",1,104,"Albany-Schenectady, NY",N,N,3620,36108,36044,2017-2018,41,22.22,4,"21, 41, 42, 43"
3600132,ORACLE CHARTER SCHOOL,36,888 DELAWARE AVE,BUFFALO,NY,14209,36,36029,Erie County,42.908115,-78.872113,15380,"Buffalo-Cheektowaga-Niagara Falls, NY",1,160,"Buffalo-Cheektowaga, NY",N,N,3626,36149,36063,2017-2018,11,0.0,1,11
3600133,NEW YORK STATE SCHOOL FOR THE BLIND,36,2A RICHMOND AVE,BATAVIA,NY,14020,36,36037,Genesee County,43.00661,-78.18539,12860,"Batavia, NY",2,464,"Rochester-Batavia-Seneca Falls, NY",N,N,3627,36139,36061,2017-2018,32,0.0,1,32
3600134,URBAN CHOICE CHARTER SCHOOL,36,545 HUMBOLDT ST,ROCHESTER,NY,14610,36,36055,Monroe County,43.153,-77.554085,40380,"Rochester, NY",1,464,"Rochester-Batavia-Seneca Falls, NY",N,N,3625,36136,36055,2017-2018,12,0.0,1,12
3600135,NYC SPECIAL SCHOOLS - DISTRICT 75,36,400 FIRST AVE,NEW YORK,NY,10010,36,36061,New York County,40.73697,-73.978251,35620,"New York-Newark-Jersey City, NY-NJ-PA",1,408,"New York-Newark, NY-NJ-CT-PA",N,N,3612,36074,36027,2017-2018,11,1.82,2,"11, 21"
3600136,GIRLS PREPARATORY CHARTER SCHOOL OF NEW YORK,36,442 E HOUSTON ST-RM 312,NEW YORK,NY,10002,36,36061,New York County,40.719714,-73.977508,35620,"New York-Newark-Jersey City, NY-NJ-PA",1,408,"New York-Newark, NY-NJ-CT-PA",N,N,3607,36074,36026,2017-2018,11,0.0,1,11
3600137,MANHATTAN CHARTER SCHOOL,36,100 ATTORNEY ST,NEW YORK,NY,10002,36,36061,New York County,40.718333,-73.984033,35620,"New York-Newark-Jersey City, NY-NJ-PA",1,408,"New York-Newark, NY-NJ-CT-PA",N,N,3612,36065,36026,2017-2018,11,0.0,1,11
3600138,HARLEM LINK CHARTER SCHOOL,36,20 W 112TH ST-RM 357,NEW YORK,NY,10026,36,36061,New York County,40.798378,-73.949433,35620,"New York-Newark-Jersey City, NY-NJ-PA",1,408,"New York-Newark, NY-NJ-CT-PA",N,N,3613,36068,36030,2017-2018,11,0.0,1,11
3600139,FUTURE LEADERS INSTITUTE CHARTER SCHOOL,36,134 W 122ND ST,NEW YORK,NY,10027,36,36061,New York County,40.806138,-73.94856800000001,35620,"New York-Newark-Jersey City, NY-NJ-PA",1,408,"New York-Newark, NY-NJ-CT-PA",N,N,3613,36070,36030,2017-2018,11,0.0,1,11
3600140,HARLEM CHILDREN'S ZONE PROMISE ACADEMY II CHARTER SCHOOL,36,35 E 125TH ST,NEW YORK,NY,10035,36,36061,New York County,40.80597,-73.94076100000001,35620,"New York-Newark-Jersey City, NY-NJ-PA",1,408,"New York-Newark, NY-NJ-CT-PA",N,N,3613,36068,36030,2017-2018,11,0.0,1,11
3600141,HARLEM VILLAGE ACADEMY LEADERSHIP CHARTER SCHOOL,36,2351 1ST AVE-4TH FL,NEW YORK,NY,10035,36,36061,New York County,40.799172,-73.933593,35620,"New York-Newark-Jersey City, NY-NJ-PA",1,408,"New York-Newark, NY-NJ-CT-PA",N,N,3613,36068,36030,2017-2018,11,0.0,1,11
3600142,NEW YORK CENTER FOR AUTISM CHARTER SCHOOL,36,433 E 100TH ST,NEW YORK,NY,10029,36,36061,New York County,40.785627,-73.941007,35620,"New York-Newark-Jersey City, NY-NJ-PA",1,408,"New York-Newark, NY-NJ-CT-PA",N,N,3613,36068,36029,2017-2018,11,0.0,1,11
3600143,KIPP INFINITY CHARTER SCHOOL,36,625 W 133 ST-RM 308D,NEW YORK,NY,10027,36,36061,New York County,40.819609,-73.95729,35620,"New York-Newark-Jersey City, NY-NJ-PA",1,408,"New York-Newark, NY-NJ-CT-PA",N,N,3613,36070,36031,2017-2018,11,0.0,1,11
3600144,SOUTH BRONX CHARTER SCHOOL,36,164 BRUCKNER BLVD,BRONX,NY,10454,36,36005,Bronx County,40.802884,-73.917771,35620,"New York-Newark-Jersey City, NY-NJ-PA",1,408,"New York-Newark, NY-NJ-CT-PA",N,N,3615,36084,36029,2017-2018,11,0.0,1,11
3600145,WILLIAMSBURG COLLEGIATE CHARTER SCHOOL,36,157 WILSON ST-4TH FL,BROOKLYN,NY,11211,36,36047,Kings County,40.705968,-73.961927,35620,"New York-Newark-Jersey City, NY-NJ-PA",1,408,"New York-Newark, NY-NJ-CT-PA",N,N,3607,36050,36026,2017-2018,11,0.0,1,11
3600146,HELLENIC CLASSICAL CHARTER SCHOOL,36,646 5TH AVE,BROOKLYN,NY,11215,36,36047,Kings County,40.662747,-73.99236400000001,35620,"New York-Newark-Jersey City, NY-NJ-PA",1,408,"New York-Newark, NY-NJ-CT-PA",N,N,3607,36051,36020,2017-2018,11,0.0,1,11
3600147,ACHIEVEMENT FIRST CROWN HEIGHTS CHARTER SCHOOL,36,1485 PACIFIC ST,BROOKLYN,NY,11213,36,36047,Kings County,40.677468000000005,-73.942015,35620,"New York-Newark-Jersey City, NY-NJ-PA",1,408,"New York-Newark, NY-NJ-CT-PA",N,N,3608,36056,36025,2017-2018,11,0.0,1,11
3600148,KIPP ALWAYS MENTALLY PREPARED CHARTER SCHOOL,36,1224 PARK PL-4TH FL,BROOKLYN,NY,11213,36,36047,Kings County,40.6724,-73.9372,35620,"New York-Newark-Jersey City, NY-NJ-PA",1,408,"New York-Newark, NY-NJ-CT-PA",N,N,3609,36056,36025,2017-2018,11,0.0,1,11
3600149,ACHIEVEMENT FIRST EAST NEW YORK CHARTER SCHOOL,36,557 PENNSYLVANIA AVE,BROOKLYN,NY,11207,36,36047,Kings County,40.663773,-73.89328,35620,"New York-Newark-Jersey City, NY-NJ-PA",1,408,"New York-Newark, NY-NJ-CT-PA",N,N,3608,36060,36019,2017-2018,11,0.0,1,11
3600150,UFT CHARTER SCHOOL,36,800 VAN SICLEN,BROOKLYN,NY,11207,36,36047,Kings County,40.660087,-73.885767,35620,"New York-Newark-Jersey City, NY-NJ-PA",1,408,"New York-Newark, NY-NJ-CT-PA",N,N,3608,36060,36019,2017-2018,11,0.0,1,11
3600151,NEW YORK CITY GEOGRAPHIC DISTRICT #20,36,415 89TH ST,BROOKLYN,NY,11209,36,36047,Kings County,40.62025,-74.028521,35620,"New York-Newark-Jersey City, NY-NJ-PA",1,408,"New York-Newark, NY-NJ-CT-PA",N,N,3611,36046,36022,2017-2018,11,0.0,1,11
3600152,NEW YORK CITY GEOGRAPHIC DISTRICT #21,36,501 WEST AVE,BROOKLYN,NY,11224,36,36047,Kings County,40.582382,-73.972509,35620,"New York-Newark-Jersey City, NY-NJ-PA",1,408,"New York-Newark, NY-NJ-CT-PA",N,N,3608,36046,36023,2017-2018,11,0.0,1,11
3600153,NEW YORK CITY GEOGRAPHIC DISTRICT #22,36,5613-19 FLATLANDS AVE,BROOKLYN,NY,11234,36,36047,Kings County,40.630373,-73.921764,35620,"New York-Newark-Jersey City, NY-NJ-PA",1,408,"New York-Newark, NY-NJ-CT-PA",N,N,3608,36059,36021,2017-2018,11,1.23,2,"11, 41"
3600154,NEW YORK STATE SCHOOL FOR THE DEAF,36,401 TURIN ST,ROME,NY,13440,36,36065,Oneida County,43.22409,-75.45700500000001,46540,"Utica-Rome, NY",1,N,N,N,N,3622,36119,36047,2017-2018,31,0.0,1,31
3600155,CHARTER SCHOOL OF EDUCATIONAL EXCELLENCE,36,260 WARBURTON AVE,YONKERS,NY,10701,36,36119,Westchester County,40.944175,-73.896755,35620,"New York-Newark-Jersey City, NY-NJ-PA",1,408,"New York-Newark, NY-NJ-CT-PA",N,N,3616,36089,36035,2017-2018,21,0.0,1,21
3600157,EXPLORE CHARTER SCHOOL,36,655 PARKSIDE AVE,BROOKLYN,NY,11226,36,36047,Kings County,40.656367,-73.951583,35620,"New York-Newark-Jersey City, NY-NJ-PA",1,408,"New York-Newark, NY-NJ-CT-PA",N,N,3609,36043,36020,2017-2018,11,0.0,1,11
3600158,DEMOCRACY PREPARATORY CHARTER SCHOOL,36,222 W 134TH ST,NEW YORK,NY,10030,36,36061,New York County,40.81511,-73.94586600000001,35620,"New York-Newark-Jersey City, NY-NJ-PA",1,408,"New York-Newark, NY-NJ-CT-PA",N,N,3613,36070,36030,2017-2018,11,0.0,1,11
3600159,COMMUNITY ROOTS CHARTER SCHOOL,36,51 ST EDWARDS ST-3RD FL,BROOKLYN,NY,11205,36,36047,Kings County,40.695165,-73.97788200000001,35620,"New York-Newark-Jersey City, NY-NJ-PA",1,408,"New York-Newark, NY-NJ-CT-PA",N,N,3608,36057,36025,2017-2018,11,0.0,1,11
3600160,ELMWOOD VILLAGE CHARTER SCHOOL  - DAYS PARK,36,40 DAYS PARK,BUFFALO,NY,14201,36,36029,Erie County,42.89878,-78.88202100000001,15380,"Buffalo-Cheektowaga-Niagara Falls, NY",1,160,"Buffalo-Cheektowaga, NY",N,N,3626,36149,36063,2017-2018,11,0.0,1,11
3600161,SOUTH BRONX CLASSICAL CHARTER SCHOOL,36,977 FOX ST,BRONX,NY,10459,36,36005,Bronx County,40.822112,-73.89439300000001,35620,"New York-Newark-Jersey City, NY-NJ-PA",1,408,"New York-Newark, NY-NJ-CT-PA",N,N,3615,36085,36032,2017-2018,11,0.0,1,11
3600162,ALBANY COMMUNITY CHARTER SCHOOL,36,65 KRANK ST,ALBANY,NY,12202,36,36001,Albany County,42.637080000000005,-73.76579100000001,10580,"Albany-Schenectady-Troy, NY",1,104,"Albany-Schenectady, NY",N,N,3620,36108,36044,2017-2018,13,0.0,1,13
3600163,INTERNATIONAL LEADERSHIP CHARTER SCHOOL,36,3030 RIVERDALE AVE,BRONX,NY,10463,36,36005,Bronx County,40.881003,-73.909273,35620,"New York-Newark-Jersey City, NY-NJ-PA",1,408,"New York-Newark, NY-NJ-CT-PA",N,N,3616,36081,36034,2017-2018,11,0.0,1,11
3600164,NIAGARA CHARTER SCHOOL,36,2077 LOCKPORT RD,NIAGARA FALLS,NY,14304,36,36063,Niagara County,43.122992,-78.93861100000001,15380,"Buffalo-Cheektowaga-Niagara Falls, NY",1,160,"Buffalo-Cheektowaga, NY",N,N,3627,36145,36062,2017-2018,21,0.0,1,21
3600165,HYDE LEADERSHIP CHARTER SCHOOL,36,730 BRYANT AVE,BRONX,NY,10474,36,36005,Bronx County,40.815803,-73.885306,35620,"New York-Newark-Jersey City, NY-NJ-PA",1,408,"New York-Newark, NY-NJ-CT-PA",N,N,3615,36084,36032,2017-2018,11,0.0,1,11
3600166,ACHIEVEMENT FIRST-BUSHWICK CHARTER SCHOOL,36,1300 GREENE AVE,BROOKLYN,NY,11237,36,36047,Kings County,40.697753,-73.91921500000001,35620,"New York-Newark-Jersey City, NY-NJ-PA",1,408,"New York-Newark, NY-NJ-CT-PA",N,N,3607,36053,36018,2017-2018,11,0.0,1,11
3600167,NEW HEIGHTS ACADEMY CHARTER SCHOOL,36,1818 AMSTERDAM AVE,NEW YORK,NY,10031,36,36061,New York County,40.828824,-73.945368,35620,"New York-Newark-Jersey City, NY-NJ-PA",1,408,"New York-Newark, NY-NJ-CT-PA",N,N,3613,36071,36030,2017-2018,11,0.0,1,11
3600169,SUCCESS ACADEMY CHARTER SCHOOL-HARLEM 1,36,34 W 118TH ST-2ND FL,NEW YORK,NY,10026,36,36061,New York County,40.8023,-73.946918,35620,"New York-Newark-Jersey City, NY-NJ-PA",1,408,"New York-Newark, NY-NJ-CT-PA",N,N,3613,36070,36030,2017-2018,11,0.0,1,11
3600170,ACHIEVEMENT FIRST ENDEAVOR CHARTER SCHOOL,36,510 WAVERLY AVE,BROOKLYN,NY,11238,36,36047,Kings County,40.682476,-73.96600600000001,35620,"New York-Newark-Jersey City, NY-NJ-PA",1,408,"New York-Newark, NY-NJ-CT-PA",N,N,3608,36057,36025,2017-2018,11,0.0,1,11
3600172,LEADERSHIP PREPARATORY BEDFORD STUYVESANT CHARTER SCHOOL,36,141 MACON ST-1ST FL,BROOKLYN,NY,11216,36,36047,Kings County,40.681992,-73.945229,35620,"New York-Newark-Jersey City, NY-NJ-PA",1,408,"New York-Newark, NY-NJ-CT-PA",N,N,3608,36056,36025,2017-2018,11,0.0,1,11
3600173,TRUE NORTH ROCHESTER PREPARATORY CHARTER SCHOOL,36,630 BROOKS AVE,ROCHESTER,NY,14619,36,36055,Monroe County,43.131350000000005,-77.65267800000001,40380,"Rochester, NY",1,464,"Rochester-Batavia-Seneca Falls, NY",N,N,3625,36137,36061,2017-2018,12,0.0,1,12
3600943,ICAHN CHARTER SCHOOL 2,36,1640 BRONXDALE AVE,BRONX,NY,10462,36,36005,Bronx County,40.844959,-73.85803,35620,"New York-Newark-Jersey City, NY-NJ-PA",1,408,"New York-Newark, NY-NJ-CT-PA",N,N,3614,36080,36034,2017-2018,11,0.0,1,11
3600944,KINGS COLLEGIATE CHARTER SCHOOL,36,1485 PACIFIC ST-FL 2,BROOKLYN,NY,11212,36,36061,New York County,40.733299,-73.990849,35620,"New York-Newark-Jersey City, NY-NJ-PA",1,408,"New York-Newark, NY-NJ-CT-PA",N,N,3612,36066,36028,2017-2018,11,0.0,1,11
3600945,GREEN TECH HIGH CHARTER SCHOOL,36,99 SLINGERLAND ST,ALBANY,NY,12202,36,36001,Albany County,42.64271,-73.77045100000001,10580,"Albany-Schenectady-Troy, NY",1,104,"Albany-Schenectady, NY",N,N,3620,36108,36044,2017-2018,13,0.0,1,13
3600946,HENRY JOHNSON CHARTER SCHOOL,36,30 WATERVLIET AVE,ALBANY,NY,12206,36,36001,Albany County,42.675876,-73.783331,10580,"Albany-Schenectady-Troy, NY",1,104,"Albany-Schenectady, NY",N,N,3620,36108,36044,2017-2018,13,0.0,1,13
3600947,NYS OFFICE FOR PEOPLE WITH DEVELOPMENTAL DISABILITIES,36,44 HOLLAND AVE,ALBANY,NY,12229,36,36001,Albany County,42.647719,-73.774175,10580,"Albany-Schenectady-Troy, NY",1,104,"Albany-Schenectady, NY",N,N,3620,36109,36044,2017-2018,41,16.67,2,"22, 41"
3600948,NORTHSIDE CHARTER HIGH SCHOOL,36,424 LEONARD ST-4TH FL,BROOKLYN,NY,11222,36,36047,Kings County,40.719728,-73.94835400000001,35620,"New York-Newark-Jersey City, NY-NJ-PA",1,408,"New York-Newark, NY-NJ-CT-PA",N,N,3612,36050,36026,2017-2018,11,0.0,1,11
3600949,PAVE ACADEMY CHARTER SCHOOL,36,732 HENRY ST,BROOKLYN,NY,11231,36,36047,Kings County,40.67596,-74.003901,35620,"New York-Newark-Jersey City, NY-NJ-PA",1,408,"New York-Newark, NY-NJ-CT-PA",N,N,3607,36051,36025,2017-2018,11,0.0,1,11
3600950,ROCHESTER ACADEMY CHARTER SCHOOL,36,841 GENESEE ST,ROCHESTER,NY,14611,36,36055,Monroe County,43.13337,-77.636651,40380,"Rochester, NY",1,464,"Rochester-Batavia-Seneca Falls, NY",N,N,3625,36137,36061,2017-2018,12,0.0,1,12
3600952,THE EQUITY PROJECT CHARTER SCHOOL,36,549 AUDUBON AVE-TRAILER 30,NEW YORK,NY,10040,36,36061,New York County,40.856678,-73.926411,35620,"New York-Newark-Jersey City, NY-NJ-PA",1,408,"New York-Newark, NY-NJ-CT-PA",N,N,3613,36072,36031,2017-2018,11,0.0,1,11
3600953,SUCCESS ACADEMY CHARTER SCHOOL-HARLEM 4,36,240 W 113TH ST-3RD FL,NEW YORK,NY,10026,36,36061,New York County,40.80176,-73.955596,35620,"New York-Newark-Jersey City, NY-NJ-PA",1,408,"New York-Newark, NY-NJ-CT-PA",N,N,3613,36070,36030,2017-2018,11,0.0,1,11
3600954,SUCCESS ACADEMY CHARTER SCHOOL-HARLEM 2,36,144 E 128TH ST-3RD FL,NEW YORK,NY,10035,36,36061,New York County,40.80586,-73.935271,35620,"New York-Newark-Jersey City, NY-NJ-PA",1,408,"New York-Newark, NY-NJ-CT-PA",N,N,3613,36068,36030,2017-2018,11,0.0,1,11
3600955,ICAHN CHARTER SCHOOL 3,36,1500 PELHAM PKWY S,BRONX,NY,10461,36,36005,Bronx County,40.856754,-73.842916,35620,"New York-Newark-Jersey City, NY-NJ-PA",1,408,"New York-Newark, NY-NJ-CT-PA",N,N,3614,36080,36034,2017-2018,11,0.0,1,11
3600956,BRONX ACADEMY OF PROMISE CHARTER SCHOOL,36,1349 INWOOD AVE,BRONX,NY,10452,36,36005,Bronx County,40.83955,-73.91972100000001,35620,"New York-Newark-Jersey City, NY-NJ-PA",1,408,"New York-Newark, NY-NJ-CT-PA",N,N,3615,36084,36029,2017-2018,11,0.0,1,11
3600957,VOICE CHARTER SCHOOL OF NEW YORK,36,36-24 12TH ST,LONG ISLAND CITY,NY,11106,36,36081,Queens County,40.760256,-73.939747,35620,"New York-Newark-Jersey City, NY-NJ-PA",1,408,"New York-Newark, NY-NJ-CT-PA",N,N,3612,36037,36012,2017-2018,11,0.0,1,11
3600958,ST. HOPE LEADERSHIP ACADEMY CHARTER SCHOOL,36,222 W 134TH ST-RM 111,NEW YORK,NY,10030,36,36061,New York County,40.81511,-73.94586600000001,35620,"New York-Newark-Jersey City, NY-NJ-PA",1,408,"New York-Newark, NY-NJ-CT-PA",N,N,3613,36070,36030,2017-2018,11,0.0,1,11
3600959,NYC CHARTER HS - AECI,36,838 BROOK AVE,BRONX,NY,10454,36,36005,Bronx County,40.821884,-73.9106,35620,"New York-Newark-Jersey City, NY-NJ-PA",1,408,"New York-Newark, NY-NJ-CT-PA",N,N,3615,36079,36032,2017-2018,11,0.0,1,11
3600960,MOTT HAVEN ACADEMY CHARTER SCHOOL,36,170 BROWN PL,BRONX,NY,10454,36,36005,Bronx County,40.80638,-73.921031,35620,"New York-Newark-Jersey City, NY-NJ-PA",1,408,"New York-Newark, NY-NJ-CT-PA",N,N,3615,36084,36029,2017-2018,11,0.0,1,11
3600961,LA CIMA CHARTER SCHOOL,36,800 GATES AVE,BROOKLYN,NY,11221,36,36047,Kings County,40.688102,-73.93238000000001,35620,"New York-Newark-Jersey City, NY-NJ-PA",1,408,"New York-Newark, NY-NJ-CT-PA",N,N,3608,36056,36025,2017-2018,11,0.0,1,11
3600962,SUCCESS ACADEMY CHARTER SCHOOL-HARLEM 3,36,141 E 111TH ST-3RD FL,NEW YORK,NY,10029,36,36061,New York County,40.79587,-73.94458,35620,"New York-Newark-Jersey City, NY-NJ-PA",1,408,"New York-Newark, NY-NJ-CT-PA",N,N,3613,36068,36029,2017-2018,11,0.0,1,11
3600963,UNIVERSITY PREP CHARTER HIGH SCHOOL,36,600 ST ANN'S AVE,BRONX,NY,10455,36,36005,Bronx County,40.814824,-73.91208900000001,35620,"New York-Newark-Jersey City, NY-NJ-PA",1,408,"New York-Newark, NY-NJ-CT-PA",N,N,3615,36084,36032,2017-2018,11,0.0,1,11
3600964,DREAM CHARTER SCHOOL,36,1991 2ND AVE,NEW YORK,NY,10029,36,36061,New York County,40.789077,-73.944376,35620,"New York-Newark-Jersey City, NY-NJ-PA",1,408,"New York-Newark, NY-NJ-CT-PA",N,N,3613,36068,36029,2017-2018,11,0.0,1,11
3600965,BEDFORD STUYVESANT COLLEGIATE CHARTER SCHOOL,36,800 GATES AVE-4TH FL,BROOKLYN,NY,11221,36,36047,Kings County,40.688102,-73.93238000000001,35620,"New York-Newark-Jersey City, NY-NJ-PA",1,408,"New York-Newark, NY-NJ-CT-PA",N,N,3608,36056,36025,2017-2018,11,0.0,1,11
3600966,BROOKLYN ASCEND CHARTER SCHOOL,36,205 ROCKAWAY PKWY-2ND FL,BROOKLYN,NY,11212,36,36047,Kings County,40.66217,-73.921051,35620,"New York-Newark-Jersey City, NY-NJ-PA",1,408,"New York-Newark, NY-NJ-CT-PA",N,N,3609,36055,36020,2017-2018,11,0.0,1,11
3600967,BGLIG-SHIRLEY RODRIGUEZ-REMENESKI CS,36,750 CONCOURSE VILLAGE W-LOWER LEVEL,BRONX,NY,10451,36,36005,Bronx County,40.82296,-73.922531,35620,"New York-Newark-Jersey City, NY-NJ-PA",1,408,"New York-Newark, NY-NJ-CT-PA",N,N,3615,36079,36029,2017-2018,11,0.0,1,11
3600968,BRONX COMMUNITY CHARTER SCHOOL,36,3170 WEBSTER AVE,BRONX,NY,10467,36,36005,Bronx County,40.872746,-73.87479,35620,"New York-Newark-Jersey City, NY-NJ-PA",1,408,"New York-Newark, NY-NJ-CT-PA",N,N,3613,36080,36036,2017-2018,11,0.0,1,11
3600969,ACHIEVEMENT FIRST BROWNSVILLE CHARTER SCHOOL,36,2021 BERGEN ST-RM 149,BROOKLYN,NY,11233,36,36047,Kings County,40.674482000000005,-73.913259,35620,"New York-Newark-Jersey City, NY-NJ-PA",1,408,"New York-Newark, NY-NJ-CT-PA",N,N,3608,36055,36019,2017-2018,11,0.0,1,11
3600970,ALOMA D JOHNSON CHARTER SCHOOL,36,15 JEWETT PKWY,BUFFALO,NY,14214,36,36029,Erie County,42.935316,-78.844074,15380,"Buffalo-Cheektowaga-Niagara Falls, NY",1,160,"Buffalo-Cheektowaga, NY",N,N,3626,36141,36060,2017-2018,11,0.0,1,11
3600984,BROWNSVILLE COLLEGIATE  CHARTER SCHOOL,36,364 SACKMAN ST-4TH FL,BROOKLYN,NY,11212,36,36047,Kings County,40.668661,-73.904944,35620,"New York-Newark-Jersey City, NY-NJ-PA",1,408,"New York-Newark, NY-NJ-CT-PA",N,N,3608,36055,36020,2017-2018,11,0.0,1,11
3600986,GIRLS PREPARATORY CHARTER SCHOOL OF THE BRONX,36,681 KELLY ST-RM 205,BRONX,NY,10455,36,36005,Bronx County,40.815787,-73.90165,35620,"New York-Newark-Jersey City, NY-NJ-PA",1,408,"New York-Newark, NY-NJ-CT-PA",N,N,3615,36084,36032,2017-2018,11,0.0,1,11
3600987,GROWING UP GREEN CHARTER SCHOOL,36,39-27 28TH ST,LONG ISLAND CITY,NY,11101,36,36081,Queens County,40.753052,-73.935773,35620,"New York-Newark-Jersey City, NY-NJ-PA",1,408,"New York-Newark, NY-NJ-CT-PA",N,N,3612,36030,36012,2017-2018,11,0.0,1,11
3600988,EVERGREEN CHARTER SCHOOL,36,605 PENINSULA BLVD,HEMPSTEAD,NY,11550,36,36059,Nassau County,40.697528,-73.629073,35620,"New York-Newark-Jersey City, NY-NJ-PA",1,408,"New York-Newark, NY-NJ-CT-PA",N,N,3604,36018,36006,2017-2018,21,0.0,1,21
3600989,BROOKLYN SCHOLARS CHARTER SCHOOL,36,2635 LINDEN BLVD,BROOKLYN,NY,11208,36,36047,Kings County,40.669324,-73.867271,35620,"New York-Newark-Jersey City, NY-NJ-PA",1,408,"New York-Newark, NY-NJ-CT-PA",N,N,3608,36060,36019,2017-2018,11,0.0,1,11
3600990,NEW ROOTS CHARTER SCHOOL,36,116 N CAYUGA ST,ITHACA,NY,14850,36,36109,Tompkins County,42.440182,-76.499284,27060,"Ithaca, NY",1,296,"Ithaca-Cortland, NY",N,N,3623,36125,36058,2017-2018,13,0.0,1,13
3600991,BROOKLYN PROSPECT CHARTER SCHOOL-CSD 15,36,3002 FORT HAMILTON PKWY,BROOKLYN,NY,11218,36,36047,Kings County,40.647959,-73.978753,35620,"New York-Newark-Jersey City, NY-NJ-PA",1,408,"New York-Newark, NY-NJ-CT-PA",N,N,3609,36044,36021,2017-2018,11,0.0,1,11
3600992,TRUE NORTH TROY PREPARATORY CHARTER SCHOOL,36,2 POLK ST,TROY,NY,12180,36,36083,Rensselaer County,42.7108,-73.697953,10580,"Albany-Schenectady-Troy, NY",1,104,"Albany-Schenectady, NY",N,N,3620,36108,36044,2017-2018,13,0.0,1,13
3600993,LEADERSHIP PREPARATORY OCEAN HILL CHARTER SCHOOL,36,51 CHRISTOPHER AVE,BROOKLYN,NY,11212,36,36047,Kings County,40.672236,-73.906079,35620,"New York-Newark-Jersey City, NY-NJ-PA",1,408,"New York-Newark, NY-NJ-CT-PA",N,N,3608,36055,36019,2017-2018,11,0.0,1,11
3600994,EXPLORE EMPOWER CHARTER SCHOOL,36,188 ROCHESTER AVE,BROOKLYN,NY,11213,36,36047,Kings County,40.672714,-73.928313,35620,"New York-Newark-Jersey City, NY-NJ-PA",1,408,"New York-Newark, NY-NJ-CT-PA",N,N,3609,36055,36025,2017-2018,11,0.0,1,11
3600995,ICAHN CHARTER SCHOOL 4,36,1500 PELHAM PKWY SOUTH,BRONX,NY,10461,36,36005,Bronx County,40.856754,-73.842916,35620,"New York-Newark-Jersey City, NY-NJ-PA",1,408,"New York-Newark, NY-NJ-CT-PA",N,N,3614,36080,36034,2017-2018,11,0.0,1,11
3600996,JOHN W LAVELLE PREPARATORY CHARTER SCHOOL,36,1 CORPORATE COMMONS-1 TELEPORT DR,STATEN ISLAND,NY,10311,36,36085,Richmond County,40.605476,-74.17962,35620,"New York-Newark-Jersey City, NY-NJ-PA",1,408,"New York-Newark, NY-NJ-CT-PA",N,N,3611,36063,36024,2017-2018,11,0.0,1,11
3600997,ACADEMY CHARTER SCHOOL,36,117 N FRANKLIN AVE,HEMPSTEAD,NY,11550,36,36059,Nassau County,40.70982,-73.628258,35620,"New York-Newark-Jersey City, NY-NJ-PA",1,408,"New York-Newark, NY-NJ-CT-PA",N,N,3604,36018,36006,2017-2018,21,0.0,1,21
3600998,SUMMIT ACADEMY CHARTER SCHOOL,36,27 HUNTINGTON ST,BROOKLYN,NY,11231,36,36047,Kings County,40.677617000000005,-74.004827,35620,"New York-Newark-Jersey City, NY-NJ-PA",1,408,"New York-Newark, NY-NJ-CT-PA",N,N,3607,36051,36025,2017-2018,11,0.0,1,11
3601000,EXCELLENCE GIRLS CHARTER SCHOOL,36,794 MONROE ST-3RD FL,BROOKLYN,NY,11221,36,36047,Kings County,40.688145,-73.924464,35620,"New York-Newark-Jersey City, NY-NJ-PA",1,408,"New York-Newark, NY-NJ-CT-PA",N,N,3608,36056,36025,2017-2018,11,0.0,1,11
3601001,ACADEMIC LEADERSHIP CHARTER SCHOOL,36,677 E 141ST ST,BRONX,NY,10454,36,36005,Bronx County,40.807696,-73.912805,35620,"New York-Newark-Jersey City, NY-NJ-PA",1,408,"New York-Newark, NY-NJ-CT-PA",N,N,3615,36084,36029,2017-2018,11,0.0,1,11
3601002,BROWNSVILLE ASCEND CHARTER SCHOOL,36,1501 PITKIN AVE,BROOKLYN,NY,11212,36,36047,Kings County,40.66876,-73.917891,35620,"New York-Newark-Jersey City, NY-NJ-PA",1,408,"New York-Newark, NY-NJ-CT-PA",N,N,3609,36055,36020,2017-2018,11,0.0,1,11
3601003,HEBREW LANGUAGE ACADEMY CHARTER SCHOOL,36,2186 MILL AVE,BROOKLYN,NY,11234,36,36047,Kings County,40.612337,-73.914196,35620,"New York-Newark-Jersey City, NY-NJ-PA",1,408,"New York-Newark, NY-NJ-CT-PA",N,N,3608,36059,36019,2017-2018,11,0.0,1,11
3601004,CONEY ISLAND PREPARATORY PUBLIC CHARTER SCHOOL,36,501 WEST AVE,BROOKLYN,NY,11224,36,36047,Kings County,40.582524,-73.972554,35620,"New York-Newark-Jersey City, NY-NJ-PA",1,408,"New York-Newark, NY-NJ-CT-PA",N,N,3608,36046,36023,2017-2018,11,0.0,1,11
3601005,EQUALITY CHARTER SCHOOL,36,4140 HUTCHINSON RIVER PKWY E,BRONX,NY,10475,36,36005,Bronx County,40.8644,-73.824241,35620,"New York-Newark-Jersey City, NY-NJ-PA",1,408,"New York-Newark, NY-NJ-CT-PA",N,N,3616,36082,36036,2017-2018,11,0.0,1,11
3601006,ALBANY LEADERSHIP CHARTER HIGH SCHOOL FOR GIRLS,36,19 HACKETT BLVD,ALBANY,NY,12208,36,36001,Albany County,42.646655,-73.77711500000001,10580,"Albany-Schenectady-Troy, NY",1,104,"Albany-Schenectady, NY",N,N,3620,36109,36044,2017-2018,13,0.0,1,13
3601008,UNIVERSITY PREPARATORY CHARTER SCHOOL FOR YOUNG MEN,36,1290 LAKE AVE,ROCHESTER,NY,14613,36,36055,Monroe County,43.18936,-77.629281,40380,"Rochester, NY",1,464,"Rochester-Batavia-Seneca Falls, NY",N,N,3625,36138,36056,2017-2018,12,0.0,1,12
3601009,SUCCESS ACADEMY CHARTER SCHOOL-HARLEM 5,36,301 W 140TH ST-3RD FL,NEW YORK,NY,10030,36,36061,New York County,40.820154,-73.944491,35620,"New York-Newark-Jersey City, NY-NJ-PA",1,408,"New York-Newark, NY-NJ-CT-PA",N,N,3613,36070,36030,2017-2018,11,0.0,1,11
3601010,DEMOCRACY PREP HARLEM CHARTER SCHOOL,36,207 W 133RD ST,NEW YORK,NY,10030,36,36061,New York County,40.81434,-73.94510100000001,35620,"New York-Newark-Jersey City, NY-NJ-PA",1,408,"New York-Newark, NY-NJ-CT-PA",N,N,3613,36070,36030,2017-2018,11,0.0,1,11
3601011,SUCCESS ACADEMY CHARTER SCHOOL-BRONX 1,36,339 MORRIS AVE-2ND FL,BRONX,NY,10451,36,36005,Bronx County,40.81337,-73.92576100000001,35620,"New York-Newark-Jersey City, NY-NJ-PA",1,408,"New York-Newark, NY-NJ-CT-PA",N,N,3615,36084,36029,2017-2018,11,0.0,1,11
3601012,SUCCESS ACADEMY CHARTER SCHOOL-BRONX 2,36,450 ST PAUL'S PL-5TH FL,BRONX,NY,10456,36,36005,Bronx County,40.83591,-73.90499100000001,35620,"New York-Newark-Jersey City, NY-NJ-PA",1,408,"New York-Newark, NY-NJ-CT-PA",N,N,3615,36079,36033,2017-2018,11,0.0,1,11
3601013,NEW HOPE ACADEMY CHARTER SCHOOL,36,475 E 57TH ST-3RD FL,BROOKLYN,NY,11203,36,36047,Kings County,40.6438,-73.922281,35620,"New York-Newark-Jersey City, NY-NJ-PA",1,408,"New York-Newark, NY-NJ-CT-PA",N,N,3609,36058,36021,2017-2018,11,0.0,1,11
3601014,CULTURAL ARTS ACADEMY CHARTER SCHOOL AT SPRING CREEK,36,1400 LINDEN BLVD,BROOKLYN,NY,11212,36,36047,Kings County,40.654191,-73.908376,35620,"New York-Newark-Jersey City, NY-NJ-PA",1,408,"New York-Newark, NY-NJ-CT-PA",N,N,3608,36058,36019,2017-2018,11,0.0,1,11
3601015,BROOKLYN DREAMS CHARTER SCHOOL,36,259 PARKVILLE AVE,BROOKLYN,NY,11230,36,36047,Kings County,40.63207,-73.969768,35620,"New York-Newark-Jersey City, NY-NJ-PA",1,408,"New York-Newark, NY-NJ-CT-PA",N,N,3609,36044,36017,2017-2018,11,0.0,1,11
3601016,LEADERSHIP PREPARATORY BROWNSVILLE CHARTER SCHOOL,36,985 ROCKAWAY AVE-3RD FL,BROOKLYN,NY,11212,36,36047,Kings County,40.65571,-73.906749,35620,"New York-Newark-Jersey City, NY-NJ-PA",1,408,"New York-Newark, NY-NJ-CT-PA",N,N,3608,36060,36019,2017-2018,11,0.0,1,11
3601017,BUSHWICK ASCEND CHARTER SCHOOL,36,751 KNICKERBOCKER AVE,BROOKLYN,NY,11221,36,36047,Kings County,40.693714,-73.90897600000001,35620,"New York-Newark-Jersey City, NY-NJ-PA",1,408,"New York-Newark, NY-NJ-CT-PA",N,N,3607,36054,36018,2017-2018,11,0.0,1,11
3601018,CHALLENGE PREPARATORY CHARTER SCHOOL,36,710 HARTMAN LANE,FAR ROCKAWAY,NY,11691,36,36081,Queens County,40.600225,-73.763886,35620,"New York-Newark-Jersey City, NY-NJ-PA",1,408,"New York-Newark, NY-NJ-CT-PA",N,N,3605,36031,36010,2017-2018,11,0.0,1,11
3601019,NEW WORLD PREPARATORY CHARTER SCHOOL,36,26 SHAPE AVE,STATEN ISLAND,NY,10302,36,36085,Richmond County,40.639532,-74.136932,35620,"New York-Newark-Jersey City, NY-NJ-PA",1,408,"New York-Newark, NY-NJ-CT-PA",N,N,3611,36061,36023,2017-2018,11,0.0,1,11
3601022,HEALTH SCIENCES CHARTER SCHOOL,36,1140 ELLICOTT ST,BUFFALO,NY,14209,36,36029,Erie County,42.90907,-78.86511,15380,"Buffalo-Cheektowaga-Niagara Falls, NY",1,160,"Buffalo-Cheektowaga, NY",N,N,3626,36141,36063,2017-2018,11,0.0,1,11
3601023,NEW YORK FRENCH-AMERICAN CHARTER SCHOOL,36,311 W 120TH ST,NEW YORK,NY,10027,36,36061,New York County,40.80744,-73.954311,35620,"New York-Newark-Jersey City, NY-NJ-PA",1,408,"New York-Newark, NY-NJ-CT-PA",N,N,3613,36070,36030,2017-2018,11,0.0,1,11
3601024,INWOOD ACADEMY FOR LEADERSHIP CHARTER SCHOOL,36,108 COOPER ST,NEW YORK,NY,10034,36,36061,New York County,40.869039,-73.921003,35620,"New York-Newark-Jersey City, NY-NJ-PA",1,408,"New York-Newark, NY-NJ-CT-PA",N,N,3613,36072,36031,2017-2018,11,0.0,1,11
3601025,METROPOLITAN LIGHTHOUSE CHARTER SCHOOL,36,180 W 165TH ST,BRONX,NY,10452,36,36005,Bronx County,40.83425,-73.93019100000001,35620,"New York-Newark-Jersey City, NY-NJ-PA",1,408,"New York-Newark, NY-NJ-CT-PA",N,N,3615,36077,36029,2017-2018,11,0.0,1,11
3601027,DR RICHARD IZQUIERDO HEALTH AND SCIENCE CHARTER SCHOOL,36,800 HOME ST-RM 205,BRONX,NY,10456,36,36005,Bronx County,40.827760000000005,-73.900671,35620,"New York-Newark-Jersey City, NY-NJ-PA",1,408,"New York-Newark, NY-NJ-CT-PA",N,N,3615,36079,36032,2017-2018,11,0.0,1,11
3601028,ACHIEVEMENT FIRST APOLLO CHARTER SCHOOL,36,350 LINWOOD ST,BROOKLYN,NY,11208,36,36047,Kings County,40.677027,-73.883904,35620,"New York-Newark-Jersey City, NY-NJ-PA",1,408,"New York-Newark, NY-NJ-CT-PA",N,N,3607,36054,36018,2017-2018,11,0.0,1,11
3601029,BEDFORD STUYVESANT NEW BEGINNINGS CHARTER SCHOOL,36,82 LEWIS AVE,BROOKLYN,NY,11206,36,36047,Kings County,40.694700000000005,-73.937541,35620,"New York-Newark-Jersey City, NY-NJ-PA",1,408,"New York-Newark, NY-NJ-CT-PA",N,N,3608,36054,36018,2017-2018,11,0.0,1,11
3601030,HYDE LEADERSHIP CHARTER SCHOOL - BROOKLYN,36,330 ALABAMA AVE,BROOKLYN,NY,11207,36,36047,Kings County,40.667896,-73.89813600000001,35620,"New York-Newark-Jersey City, NY-NJ-PA",1,408,"New York-Newark, NY-NJ-CT-PA",N,N,3608,36060,36019,2017-2018,11,0.0,1,11
3601031,IMAGINE ME LEADERSHIP CHARTER SCHOOL,36,818 SCHENCK AVE,BROOKLYN,NY,11207,36,36047,Kings County,40.66015,-73.883431,35620,"New York-Newark-Jersey City, NY-NJ-PA",1,408,"New York-Newark, NY-NJ-CT-PA",N,N,3608,36060,36019,2017-2018,11,0.0,1,11
3601032,OCEAN HILL COLLEGIATE CHARTER SCHOOL,36,1137 HERKIMER ST-2ND FL,BROOKLYN,NY,11233,36,36047,Kings County,40.678117,-73.91589400000001,35620,"New York-Newark-Jersey City, NY-NJ-PA",1,408,"New York-Newark, NY-NJ-CT-PA",N,N,3608,36055,36025,2017-2018,11,0.0,1,11
3601033,BROOKLYN EAST COLLEGIATE CHARTER SCHOOL,36,80 UNDERHILL AVE,BROOKLYN,NY,11238,36,36047,Kings County,40.67833,-73.96574100000001,35620,"New York-Newark-Jersey City, NY-NJ-PA",1,408,"New York-Newark, NY-NJ-CT-PA",N,N,3609,36057,36025,2017-2018,11,0.0,1,11
3601034,ROCHDALE EARLY ADVANTAGE CHARTER SCHOOL,36,122-05 SMITH ST,JAMAICA,NY,11434,36,36081,Queens County,40.67974,-73.77816,35620,"New York-Newark-Jersey City, NY-NJ-PA",1,408,"New York-Newark, NY-NJ-CT-PA",N,N,3605,36032,36010,2017-2018,11,0.0,1,11
3601035,RIVERTON STREET CHARTER SCHOOL,36,118-34 RIVERTON ST,SAINT ALBANS,NY,11412,36,36081,Queens County,40.689347,-73.763553,35620,"New York-Newark-Jersey City, NY-NJ-PA",1,408,"New York-Newark, NY-NJ-CT-PA",N,N,3605,36029,36014,2017-2018,11,0.0,1,11
3601036,RENSAISSANCE CHARTER HIGH SCHOOL FOR INNOVATION,36,410 E 100TH ST-2ND FL,NEW YORK,NY,10029,36,36061,New York County,40.78529,-73.942161,35620,"New York-Newark-Jersey City, NY-NJ-PA",1,408,"New York-Newark, NY-NJ-CT-PA",N,N,3613,36068,36029,2017-2018,11,0.0,1,11
3601039,SUCCESS ACADEMY CHARTER SCHOOL-UPPER WEST,36,145 W 84TH ST-2ND FL,NEW YORK,NY,10024,36,36061,New York County,40.785961,-73.974053,35620,"New York-Newark-Jersey City, NY-NJ-PA",1,408,"New York-Newark, NY-NJ-CT-PA",N,N,3610,36069,36029,2017-2018,11,0.0,1,11
3601040,TRUE NORTH ROCHESTER  PREP-WEST CAMP,36,432 CHILI AVE,ROCHESTER,NY,14611,36,36055,Monroe County,43.14663,-77.648131,40380,"Rochester, NY",1,464,"Rochester-Batavia-Seneca Falls, NY",N,N,3625,36137,36056,2017-2018,12,0.0,1,12
3601041,NEW VISIONS CHARTER HIGH SCHOOL FOR THE HUMANITIES,36,99 TERRACE VIEW AVE-RM 360,BRONX,NY,10463,36,36061,New York County,40.87717,-73.912747,35620,"New York-Newark-Jersey City, NY-NJ-PA",1,408,"New York-Newark, NY-NJ-CT-PA",N,N,3613,36072,36031,2017-2018,11,0.0,1,11
3601042,EAST HARLEM SCHOLARS ACADEMY CHARTER SCHOOL,36,2050 2ND AVE,NEW YORK,NY,10026,36,36061,New York County,40.790024,-73.942589,35620,"New York-Newark-Jersey City, NY-NJ-PA",1,408,"New York-Newark, NY-NJ-CT-PA",N,N,3613,36068,36029,2017-2018,11,0.0,1,11
3601043,BROOME STREET ACADEMY CHARTER HIGH SCHOOL,36,121 AVE OF THE AMERICAS,NEW YORK,NY,10013,36,36061,New York County,40.724138,-74.005073,35620,"New York-Newark-Jersey City, NY-NJ-PA",1,408,"New York-Newark, NY-NJ-CT-PA",N,N,3610,36066,36026,2017-2018,11,0.0,1,11
3601044,NEW YORK CITY MONTESSORI CHARTER SCHOOL,36,423 E 138TH ST,BRONX,NY,10454,36,36005,Bronx County,40.808927,-73.92184300000001,35620,"New York-Newark-Jersey City, NY-NJ-PA",1,408,"New York-Newark, NY-NJ-CT-PA",N,N,3615,36084,36029,2017-2018,11,0.0,1,11
3601046,DISCOVERY CHARTER SCHOOL,36,133 HOOVER DR,ROCHESTER,NY,14615,36,36055,Monroe County,43.2031,-77.671161,40380,"Rochester, NY",1,464,"Rochester-Batavia-Seneca Falls, NY",N,N,3625,36134,36056,2017-2018,21,0.0,1,21
3601047,NEW VISIONS CHARTER HS-ADV MATH/SCIE,36,99 TERRACE VIEW AVE-RM 254,BRONX,NY,10463,36,36061,New York County,40.87717,-73.912747,35620,"New York-Newark-Jersey City, NY-NJ-PA",1,408,"New York-Newark, NY-NJ-CT-PA",N,N,3613,36072,36031,2017-2018,11,0.0,1,11
3601048,EMBER CHARTER SCHOOL,36,616 QUINCY ST-3RD FL,BROOKLYN,NY,11221,36,36047,Kings County,40.688515,-73.93563,35620,"New York-Newark-Jersey City, NY-NJ-PA",1,408,"New York-Newark, NY-NJ-CT-PA",N,N,3608,36056,36025,2017-2018,11,0.0,1,11
3601049,ICAHN CHARTER SCHOOL 5,36,1500 PELHAM PKWY S,BRONX,NY,10461,36,36005,Bronx County,40.856754,-73.842916,35620,"New York-Newark-Jersey City, NY-NJ-PA",1,408,"New York-Newark, NY-NJ-CT-PA",N,N,3614,36080,36034,2017-2018,11,0.0,1,11
3601050,INVICTUS PREPARATORY CHARTER SCHOOL,36,370 FOUNTAIN AVE-3RD FL,BROOKLYN,NY,11208,36,36047,Kings County,40.670536,-73.874539,35620,"New York-Newark-Jersey City, NY-NJ-PA",1,408,"New York-Newark, NY-NJ-CT-PA",N,N,3608,36060,36019,2017-2018,11,0.0,1,11
3601051,AMANI PUBLIC CHARTER SCHOOL,36,60 S 3RD AVE,MOUNT VERNON,NY,10550,36,36119,Westchester County,40.90971,-73.83564100000001,35620,"New York-Newark-Jersey City, NY-NJ-PA",1,408,"New York-Newark, NY-NJ-CT-PA",N,N,3616,36089,36036,2017-2018,21,0.0,1,21
3601052,EXPLORE EXCEL CHARTER SCHOOL,36,1077 REMSEN AVE,BROOKLYN,NY,11236,36,36047,Kings County,40.642596000000005,-73.90805300000001,35620,"New York-Newark-Jersey City, NY-NJ-PA",1,408,"New York-Newark, NY-NJ-CT-PA",N,N,3608,36058,36019,2017-2018,11,0.0,1,11
3601053,ACADEMY OF THE CITY CHARTER SCHOOL,36,31-29 60TH ST,WOODSIDE,NY,11377,36,36081,Queens County,40.756936,-73.902428,35620,"New York-Newark-Jersey City, NY-NJ-PA",1,408,"New York-Newark, NY-NJ-CT-PA",N,N,3614,36034,36013,2017-2018,11,0.0,1,11
3601054,SUCCESS ACADEMY CHARTER SCHOOL - BED STUY 1,36,70 TOMPKINS AVE-2ND FL,BROOKLYN,NY,11206,36,36047,Kings County,40.696729000000005,-73.947046,35620,"New York-Newark-Jersey City, NY-NJ-PA",1,408,"New York-Newark, NY-NJ-CT-PA",N,N,3608,36056,36018,2017-2018,11,0.0,1,11
3601055,WEST BUFFALO CHARTER SCHOOL,36,113 LAFAYETTE AVE,BUFFALO,NY,14213,36,36029,Erie County,42.91991,-78.894621,15380,"Buffalo-Cheektowaga-Niagara Falls, NY",1,160,"Buffalo-Cheektowaga, NY",N,N,3626,36149,36060,2017-2018,11,0.0,1,11
3601056,CENTRAL QUEENS ACADEMY CHARTER SCHOOL,36,55-30 JUNCTION BLVD,ELMHURST,NY,11373,36,36081,Queens County,40.73732,-73.866461,35620,"New York-Newark-Jersey City, NY-NJ-PA",1,408,"New York-Newark, NY-NJ-CT-PA",N,N,3606,36035,36013,2017-2018,11,0.0,1,11
3601057,NEW VISIONS AIM CHARTER HIGH SCHOOL I,36,1495 HERKIMER ST,BROOKLYN,NY,11233,36,36047,Kings County,40.67726,-73.903921,35620,"New York-Newark-Jersey City, NY-NJ-PA",1,408,"New York-Newark, NY-NJ-CT-PA",N,N,3608,36055,36018,2017-2018,11,0.0,1,11
3601058,EXPLORE EXCEED CHARTER SCHOOL,36,443 ST MARKS AVE-RM 114,BROOKLYN,NY,11238,36,36047,Kings County,40.67708,-73.960071,35620,"New York-Newark-Jersey City, NY-NJ-PA",1,408,"New York-Newark, NY-NJ-CT-PA",N,N,3609,36057,36020,2017-2018,11,0.0,1,11
3601059,LAUNCH EXPEDITIONARY LEARNING CHARTER SCHOOL,36,1580 DEAN ST-3RD FL,BROOKLYN,NY,11213,36,36047,Kings County,40.675792,-73.935219,35620,"New York-Newark-Jersey City, NY-NJ-PA",1,408,"New York-Newark, NY-NJ-CT-PA",N,N,3609,36056,36025,2017-2018,11,0.0,1,11
3601060,SUCCESS ACADEMY CHARTER SCHOOL-COBBLE HILL,36,284 BALTIC ST-BSMT,BROOKLYN,NY,11201,36,36047,Kings County,40.685271,-73.993565,35620,"New York-Newark-Jersey City, NY-NJ-PA",1,408,"New York-Newark, NY-NJ-CT-PA",N,N,3607,36052,36026,2017-2018,11,0.0,1,11
3601061,NEW DAWN CHARTER HIGH SCHOOL,36,242 HOYT ST,BROOKLYN,NY,11217,36,36047,Kings County,40.683022,-73.990353,35620,"New York-Newark-Jersey City, NY-NJ-PA",1,408,"New York-Newark, NY-NJ-CT-PA",N,N,3607,36052,36025,2017-2018,11,0.0,1,11
3601062,SUCCESS ACADEMY CHARTER SCHOOL-WILLIAMSBURG,36,183 S 3RD ST-4TH FL,BROOKLYN,NY,11211,36,36047,Kings County,40.711853000000005,-73.960193,35620,"New York-Newark-Jersey City, NY-NJ-PA",1,408,"New York-Newark, NY-NJ-CT-PA",N,N,3607,36053,36018,2017-2018,11,0.0,1,11
3601063,SUCCESS ACADEMY CHARTER SCHOOL-BED STUY 2,36,211 THROOP AVE-3RD FL,BROOKLYN,NY,11206,36,36047,Kings County,40.69786,-73.943651,35620,"New York-Newark-Jersey City, NY-NJ-PA",1,408,"New York-Newark, NY-NJ-CT-PA",N,N,3608,36056,36018,2017-2018,11,0.0,1,11
3601064,BEGINNING WITH CHILDREN CHARTER SCHOOL II,36,215 HEYWARD ST,BROOKLYN,NY,11206,36,36047,Kings County,40.703857,-73.953432,35620,"New York-Newark-Jersey City, NY-NJ-PA",1,408,"New York-Newark, NY-NJ-CT-PA",N,N,3607,36050,36026,2017-2018,11,0.0,1,11
3601065,URBAN DOVE TEAM CHARTER SCHOOL,36,600 LAFAYETTE AVE,BROOKLYN,NY,11216,36,36047,Kings County,40.689698,-73.950782,35620,"New York-Newark-Jersey City, NY-NJ-PA",1,408,"New York-Newark, NY-NJ-CT-PA",N,N,3608,36056,36025,2017-2018,11,0.0,1,11
3601066,CHILDREN'S AID COLLEGE PREPARATORY CHARTER SCHOOL,36,1734 WILLIAMSBRIDGE RD,BRONX,NY,10457,36,36005,Bronx County,40.850158,-73.850758,35620,"New York-Newark-Jersey City, NY-NJ-PA",1,408,"New York-Newark, NY-NJ-CT-PA",N,N,3614,36082,36034,2017-2018,11,0.0,1,11
3601067,NEW VISIONS AIM CHARTER HIGH SCHOOL II,36,1010 REV JAMES POLITE AVE,BRONX,NY,10459,36,36005,Bronx County,40.823433,-73.898447,35620,"New York-Newark-Jersey City, NY-NJ-PA",1,408,"New York-Newark, NY-NJ-CT-PA",N,N,3615,36079,36032,2017-2018,11,0.0,1,11
3601068,TECH INTERNATIONAL CHARTER SCHOOL,36,3120 CORLEAR AVE,BRONX,NY,10463,36,36005,Bronx County,40.88077,-73.907121,35620,"New York-Newark-Jersey City, NY-NJ-PA",1,408,"New York-Newark, NY-NJ-CT-PA",N,N,3613,36081,36034,2017-2018,11,0.0,1,11
3601069,ICAHN CHARTER SCHOOL 6,36,1701 FULTON AVE,BRONX,NY,10457,36,36005,Bronx County,40.84113,-73.898201,35620,"New York-Newark-Jersey City, NY-NJ-PA",1,408,"New York-Newark, NY-NJ-CT-PA",N,N,3615,36079,36033,2017-2018,11,0.0,1,11
3601070,FAMILY LIFE ACADEMY CHARTER SCHOOL II,36,296 E 140TH ST,BRONX,NY,10454,36,36005,Bronx County,40.81147,-73.925101,35620,"New York-Newark-Jersey City, NY-NJ-PA",1,408,"New York-Newark, NY-NJ-CT-PA",N,N,3615,36084,36029,2017-2018,11,0.0,1,11
3601071,MOTT HALL CHARTER SCHOOL,36,1260 FRANKLIN AVE,BRONX,NY,10456,36,36005,Bronx County,40.83108,-73.902271,35620,"New York-Newark-Jersey City, NY-NJ-PA",1,408,"New York-Newark, NY-NJ-CT-PA",N,N,3615,36079,36032,2017-2018,11,0.0,1,11
3601072,NEW VISIONS CHTR HS-ADV MA/SCI II,36,900 TINTON AVE,BRONX,NY,10456,36,36005,Bronx County,40.82159,-73.903191,35620,"New York-Newark-Jersey City, NY-NJ-PA",1,408,"New York-Newark, NY-NJ-CT-PA",N,N,3615,36079,36032,2017-2018,11,0.0,1,11
3601073,NEW VISIONS CHARTER HIGH SCHOOL FOR HUMANITIES II,36,455 SOUTHERN BLVD,BRONX,NY,10455,36,36005,Bronx County,40.810427,-73.90740000000001,35620,"New York-Newark-Jersey City, NY-NJ-PA",1,408,"New York-Newark, NY-NJ-CT-PA",N,N,3615,36084,36029,2017-2018,11,0.0,1,11
3601074,HEKETI COMMUNITY CHARTER SCHOOL,36,403 CONCORD AVE,BRONX,NY,10454,36,36005,Bronx County,40.809314,-73.909783,35620,"New York-Newark-Jersey City, NY-NJ-PA",1,408,"New York-Newark, NY-NJ-CT-PA",N,N,3615,36084,36029,2017-2018,11,0.0,1,11
3601075,KIPP NYC WASHINGTON HEIGHTS ACADEMY CHARTER SCHOOL,36,21 JUMEL PL-RM D109,NEW YORK,NY,10032,36,36061,New York County,40.839379,-73.935739,35620,"New York-Newark-Jersey City, NY-NJ-PA",1,408,"New York-Newark, NY-NJ-CT-PA",N,N,3613,36072,36031,2017-2018,11,0.0,1,11
3601076,GLOBAL COMMUNITY CHARTER SCHOOL,36,2350 5TH AVE,NEW YORK,NY,10037,36,36061,New York County,40.817086,-73.935053,35620,"New York-Newark-Jersey City, NY-NJ-PA",1,408,"New York-Newark, NY-NJ-CT-PA",N,N,3613,36070,36030,2017-2018,11,0.0,1,11
3601077,NEIGHBORHOOD CHARTER SCHOOL OF HARLEM,36,132 W 124TH ST,NEW YORK,NY,10027,36,36061,New York County,40.807492,-73.947365,35620,"New York-Newark-Jersey City, NY-NJ-PA",1,408,"New York-Newark, NY-NJ-CT-PA",N,N,3613,36070,36030,2017-2018,11,0.0,1,11
3601078,DEMOCRACY PREP ENDURANCE CHARTER SCHOOL,36,250 W 127TH ST,NEW YORK,NY,10027,36,36061,New York County,40.810713,-73.94896,35620,"New York-Newark-Jersey City, NY-NJ-PA",1,408,"New York-Newark, NY-NJ-CT-PA",N,N,3613,36070,36030,2017-2018,11,0.0,1,11
3601079,MANHATTAN CHARTER SCHOOL II,36,220 HENRY ST,NEW YORK,NY,10002,36,36061,New York County,40.71321,-73.98597000000001,35620,"New York-Newark-Jersey City, NY-NJ-PA",1,408,"New York-Newark, NY-NJ-CT-PA",N,N,3607,36065,36026,2017-2018,11,0.0,1,11
3601080,YOUNG WOMEN'S COLLEGE PREP CHARTER SCHOOL OF ROCHESTER,36,133 HOOVER DR,ROCHESTER,NY,14615,36,36055,Monroe County,43.19233,-77.63332,40380,"Rochester, NY",1,464,"Rochester-Batavia-Seneca Falls, NY",N,N,3625,36136,36056,2017-2018,12,0.0,1,12
3601081,ROCHESTER CAREER MENTORING CHARTER SCHOOL,36,30 HART ST-3RD FL,ROCHESTER,NY,14605,36,36055,Monroe County,43.17132,-77.618221,40380,"Rochester, NY",1,464,"Rochester-Batavia-Seneca Falls, NY",N,N,3625,36137,36056,2017-2018,12,0.0,1,12
3601082,MIDDLE VILLAGE PREPARATORY CHARTER SCHOOL,36,6802 METROPOLITAN AVE,MIDDLE VILLAGE,NY,11379,36,36081,Queens County,40.710711,-73.88834800000001,35620,"New York-Newark-Jersey City, NY-NJ-PA",1,408,"New York-Newark, NY-NJ-CT-PA",N,N,3606,36028,36015,2017-2018,11,0.0,1,11
3601083,SUCCESS ACADEMY CHARTER SCHOOL-UNION SQUARE,36,40 IRVING PL-2ND FL,NEW YORK,NY,10003,36,36061,New York County,40.735504,-73.98743900000001,35620,"New York-Newark-Jersey City, NY-NJ-PA",1,408,"New York-Newark, NY-NJ-CT-PA",N,N,3612,36074,36028,2017-2018,11,0.0,1,11
3601084,UTICA ACADEMY OF SCIENCE CHARTER SCHOOL,36,1214 LINCOLN AVE,UTICA,NY,13502,36,36065,Oneida County,43.099070000000005,-75.24538100000001,46540,"Utica-Rome, NY",1,N,N,N,N,3622,36119,36047,2017-2018,13,0.0,1,13
3601085,GREAT OAKS CHARTER SCHOOL,36,38 DELANCEY ST-3RD FL,NEW YORK,NY,10002,36,36061,New York County,40.719909,-73.991729,35620,"New York-Newark-Jersey City, NY-NJ-PA",1,408,"New York-Newark, NY-NJ-CT-PA",N,N,3607,36065,36026,2017-2018,11,0.0,1,11
3601086,SUCCESS ACADEMY CHARTER SCHOOL-FORT GREENE,36,101 PARK AVE-3RD FL,BROOKLYN,NY,11205,36,36047,Kings County,40.696803,-73.97606900000001,35620,"New York-Newark-Jersey City, NY-NJ-PA",1,408,"New York-Newark, NY-NJ-CT-PA",N,N,3607,36050,36025,2017-2018,11,0.0,1,11
3601087,CENTRAL VALLEY CSD AT ILION-MOHAWK,36,111 FREDERICK ST,ILION,NY,13357,36,36043,Herkimer County,43.00862,-75.038737,46540,"Utica-Rome, NY",1,N,N,N,N,3622,36101,36051,2017-2018,31,0.0,1,31
3601088,NEW VISIONS CHTR HS-ADV MA/SCI III,36,3000 AVE X,BROOKLYN,NY,11235,36,36047,Kings County,40.59314,-73.936631,35620,"New York-Newark-Jersey City, NY-NJ-PA",1,408,"New York-Newark, NY-NJ-CT-PA",N,N,3609,36041,36019,2017-2018,11,0.0,1,11
3601089,SUCCESS ACADEMY CHARTER SCHOOL-PROSPECT HEIGHTS,36,790 PROSPECT PL,BROOKLYN,NY,11216,36,36047,Kings County,40.67373,-73.9514,35620,"New York-Newark-Jersey City, NY-NJ-PA",1,408,"New York-Newark, NY-NJ-CT-PA",N,N,3609,36043,36025,2017-2018,11,0.0,1,11
3601090,EAST HARLEM SCHOLARS ACADEMY CHARTER SCHOOL II,36,1573 MADISON AVE-RM 320,NEW YORK,NY,10029,36,36061,New York County,40.793703,-73.948683,35620,"New York-Newark-Jersey City, NY-NJ-PA",1,408,"New York-Newark, NY-NJ-CT-PA",N,N,3613,36068,36030,2017-2018,11,0.0,1,11
3601091,ICAHN CHARTER SCHOOL 7,36,1535 STORY AVE,BRONX,NY,10473,36,36005,Bronx County,40.82198,-73.877011,35620,"New York-Newark-Jersey City, NY-NJ-PA",1,408,"New York-Newark, NY-NJ-CT-PA",N,N,3615,36085,36032,2017-2018,11,0.0,1,11
3601092,NEW AMERICAN ACADEMY CHARTER SCHOOL (THE),36,9301 AVE B,BROOKLYN,NY,11236,36,36047,Kings County,40.65135,-73.91394100000001,35620,"New York-Newark-Jersey City, NY-NJ-PA",1,408,"New York-Newark, NY-NJ-CT-PA",N,N,3608,36058,36021,2017-2018,11,0.0,1,11
3601093,MATH ENGINEERING AND SCIENCE ACADEMY CHARTER HIGH SCHOOL,36,231 PALMETTO ST,BROOKLYN,NY,11221,36,36047,Kings County,40.695534,-73.915414,35620,"New York-Newark-Jersey City, NY-NJ-PA",1,408,"New York-Newark, NY-NJ-CT-PA",N,N,3607,36053,36018,2017-2018,11,0.0,1,11
3601094,UNITY PREPARATORY CHARTER SCHOOL OF BROOKLYN,36,432 MONROE ST,BROOKLYN,NY,11221,36,36047,Kings County,40.68643,-73.94098100000001,35620,"New York-Newark-Jersey City, NY-NJ-PA",1,408,"New York-Newark, NY-NJ-CT-PA",N,N,3608,36056,36025,2017-2018,11,0.0,1,11
3601095,SUCCESS ACADEMY CHARTER SCHOOL-CROWN HEIGHTS,36,330 CROWN ST,BROOKLYN,NY,11225,36,36047,Kings County,40.66605,-73.94922100000001,35620,"New York-Newark-Jersey City, NY-NJ-PA",1,408,"New York-Newark, NY-NJ-CT-PA",N,N,3609,36043,36020,2017-2018,11,0.0,1,11
3601096,SUCCESS ACADEMY CHARTER SCHOOL-BRONX 3,36,1000 TELLER AVE,BRONX,NY,10469,36,36005,Bronx County,40.827634,-73.913847,35620,"New York-Newark-Jersey City, NY-NJ-PA",1,408,"New York-Newark, NY-NJ-CT-PA",N,N,3615,36077,36032,2017-2018,11,0.0,1,11
3601097,HARLEM HEBREW LANGUAGE ACADEMY CHARTER SCHOOL,36,147 ST NICHOLAS AVE,NEW YORK,NY,10026,36,36061,New York County,40.80483,-73.952951,35620,"New York-Newark-Jersey City, NY-NJ-PA",1,408,"New York-Newark, NY-NJ-CT-PA",N,N,3613,36070,36030,2017-2018,11,0.0,1,11
3601098,CITIZENS OF THE WORLD CHARTER SCHOOL NEW YORK 1,36,424 LEONARD ST-3RD FL,BROOKLYN,NY,11222,36,36047,Kings County,40.719728,-73.94835400000001,35620,"New York-Newark-Jersey City, NY-NJ-PA",1,408,"New York-Newark, NY-NJ-CT-PA",N,N,3612,36050,36026,2017-2018,11,0.0,1,11
3601099,SUCCESS ACADEMY CHARTER SCHOOL-HELL'S KITCHEN,36,439 W 49TH ST-2ND FL,NEW YORK,NY,10019,36,36061,New York County,40.763876,-73.990402,35620,"New York-Newark-Jersey City, NY-NJ-PA",1,408,"New York-Newark, NY-NJ-CT-PA",N,N,3610,36075,36027,2017-2018,11,0.0,1,11
3601100,BROOKLYN URBAN GARDEN CHARTER SCHOOL,36,500 19TH ST,BROOKLYN,NY,11215,36,36047,Kings County,40.65638,-73.982521,35620,"New York-Newark-Jersey City, NY-NJ-PA",1,408,"New York-Newark, NY-NJ-CT-PA",N,N,3609,36044,36021,2017-2018,11,0.0,1,11
3601101,CITIZENS OF THE WORLD CHARTER SCHOOL 2,36,791 EMPIRE BLVD,BROOKLYN,NY,11213,36,36047,Kings County,40.663939,-73.9362,35620,"New York-Newark-Jersey City, NY-NJ-PA",1,408,"New York-Newark, NY-NJ-CT-PA",N,N,3609,36043,36020,2017-2018,11,0.0,1,11
3601102,CANARSIE ASCEND CHARTER SCHOOL,36,9719 FLATLANDS AVE,BROOKLYN,NY,11236,36,36047,Kings County,40.64404,-73.900661,35620,"New York-Newark-Jersey City, NY-NJ-PA",1,408,"New York-Newark, NY-NJ-CT-PA",N,N,3608,36059,36019,2017-2018,11,0.0,1,11
3601103,NEW VISIONS CHARTER HIGH SCHOOL FOR THE HUMANITIES III,36,3000 AVE X,BROOKLYN,NY,11235,36,36047,Kings County,40.59314,-73.936631,35620,"New York-Newark-Jersey City, NY-NJ-PA",1,408,"New York-Newark, NY-NJ-CT-PA",N,N,3609,36041,36019,2017-2018,11,0.0,1,11
3601104,NEWBURGH PREPARATORY CHARTER HIGH SCHOOL,36,471 BROADWAY,NEWBURGH,NY,12550,36,36071,Orange County,41.50095,-74.02958100000001,35620,"New York-Newark-Jersey City, NY-NJ-PA",1,408,"New York-Newark, NY-NJ-CT-PA",N,N,3618,36104,36039,2017-2018,21,0.0,1,21
3601105,SOUTH BRONX CLASSICAL CHARTER SCHOOL II,36,333 E 135TH ST,BRONX,NY,10454,36,36005,Bronx County,40.808060000000005,-73.925841,35620,"New York-Newark-Jersey City, NY-NJ-PA",1,408,"New York-Newark, NY-NJ-CT-PA",N,N,3615,36084,36029,2017-2018,11,0.0,1,11
3601106,LEADERSHIP PREPARATORY CANARSIE CHARTER SCHOOL,36,1070 E 104TH ST,BROOKLYN,NY,11236,36,36047,Kings County,40.644148,-73.892556,35620,"New York-Newark-Jersey City, NY-NJ-PA",1,408,"New York-Newark, NY-NJ-CT-PA",N,N,3608,36058,36019,2017-2018,11,0.0,1,11
3601107,OPPENHEIM-EPHRATAH-ST. JOHNSVILLE CSD,36,44 CENTER ST,ST JOHNSVILLE,NY,13452,36,36057,Montgomery County,43.001217,-74.676148,11220,"Amsterdam, NY",2,104,"Albany-Schenectady, NY",N,N,3619,36111,36046,2017-2018,42,0.0,1,42
3601108,BRILLA COLLEGE PREPARATORY CHARTER SCHOOL,36,413 E 144TH ST,BRONX,NY,10454,36,36005,Bronx County,40.81271,-73.919391,35620,"New York-Newark-Jersey City, NY-NJ-PA",1,408,"New York-Newark, NY-NJ-CT-PA",N,N,3615,36084,36029,2017-2018,11,0.0,1,11
3601109,ACHIEVEMENT FIRST ASPIRE CHARTER SCHOOL,36,982 HEGEMAN AVE,BROOKLYN,NY,11208,36,36047,Kings County,40.666139,-73.87634,35620,"New York-Newark-Jersey City, NY-NJ-PA",1,408,"New York-Newark, NY-NJ-CT-PA",N,N,3608,36060,36019,2017-2018,11,0.0,1,11
3601110,SUCCESS ACADEMY CHARTER SCHOOL - WASHINGTON HEIGHTS,36,701 FORT WASHINGTON AVE,NEW YORK,NY,10040,36,36061,New York County,40.85784,-73.935381,35620,"New York-Newark-Jersey City, NY-NJ-PA",1,408,"New York-Newark, NY-NJ-CT-PA",N,N,3613,36071,36031,2017-2018,11,0.0,1,11
3601111,BROOKLYN LABORATORY CHARTER SCHOOL,36,240 JAY ST,BROOKLYN,NY,11201,36,36047,Kings County,40.697093,-73.987213,35620,"New York-Newark-Jersey City, NY-NJ-PA",1,408,"New York-Newark, NY-NJ-CT-PA",N,N,3607,36052,36025,2017-2018,11,0.0,1,11
3601112,ACHIEVEMENT FIRST LINDEN CHARTER SCHOOL,36,800 VAN SICLEN AVE,BROOKLYN,NY,11207,36,36047,Kings County,40.660087,-73.885767,35620,"New York-Newark-Jersey City, NY-NJ-PA",1,408,"New York-Newark, NY-NJ-CT-PA",N,N,3608,36060,36019,2017-2018,11,0.0,1,11
3601113,RENAISSANCE ACADEMY CHARTER SCHOOL OF THE ARTS,36,299 KIRK RD,ROCHESTER,NY,14612,36,36055,Monroe County,43.25921,-77.682411,40380,"Rochester, NY",1,464,"Rochester-Batavia-Seneca Falls, NY",N,N,3625,36134,36056,2017-2018,21,0.0,1,21
3601114,CENTRAL BROOKLYN ASCEND CHARTER SCHOOL,36,465 E 29TH ST,BROOKLYN,NY,11226,36,36047,Kings County,40.638949,-73.949085,35620,"New York-Newark-Jersey City, NY-NJ-PA",1,408,"New York-Newark, NY-NJ-CT-PA",N,N,3609,36042,36021,2017-2018,11,0.0,1,11
3601115,BOYS PREPARATORY CHARTER SCHOOL OF NEW YORK,36,1695 SEWARD AVE,BRONX,NY,10473,36,36005,Bronx County,40.818712000000005,-73.868601,35620,"New York-Newark-Jersey City, NY-NJ-PA",1,408,"New York-Newark, NY-NJ-CT-PA",N,N,3615,36085,36034,2017-2018,11,0.0,1,11
3601116,SUCCESS ACADEMY CHARTER SCHOOL - ROSEDALE,36,147-65 249TH ST,ROSEDALE,NY,11422,36,36081,Queens County,40.655512,-73.738219,35620,"New York-Newark-Jersey City, NY-NJ-PA",1,408,"New York-Newark, NY-NJ-CT-PA",N,N,3605,36029,36010,2017-2018,11,0.0,1,11
3601117,VERTUS CHARTER SCHOOL,36,21 HUMBOLDT ST,ROCHESTER,NY,14609,36,36055,Monroe County,43.154511,-77.56850800000001,40380,"Rochester, NY",1,464,"Rochester-Batavia-Seneca Falls, NY",N,N,3625,36138,36055,2017-2018,12,0.0,1,12
3601118,SUCCESS ACADEMY CHARTER SCHOOL - SPRINGFIELD GARDENS,36,132-55 RIDGEDALE ST,SPRINGFIELD GARDENS,NY,11413,36,36081,Queens County,40.681723,-73.753089,35620,"New York-Newark-Jersey City, NY-NJ-PA",1,408,"New York-Newark, NY-NJ-CT-PA",N,N,3605,36029,36014,2017-2018,11,0.0,1,11
3601119,AMERICAN DREAM CHARTER SCHOOL,36,510 E 141ST ST-4TH FL,BRONX,NY,10454,36,36005,Bronx County,40.809155,-73.917454,35620,"New York-Newark-Jersey City, NY-NJ-PA",1,408,"New York-Newark, NY-NJ-CT-PA",N,N,3615,36084,36029,2017-2018,11,0.0,1,11
3601120,SUCCESS ACADEMY CHARTER SCHOOL - BRONX 4,36,885 BOLTON AVE-3RD FL,BRONX,NY,10473,36,36005,Bronx County,40.823296,-73.859866,35620,"New York-Newark-Jersey City, NY-NJ-PA",1,408,"New York-Newark, NY-NJ-CT-PA",N,N,3615,36085,36034,2017-2018,11,0.0,1,11
3601121,COMPASS CHARTER SCHOOL,36,300 ADELPHI-4TH FL,BROOKLYN,NY,11205,36,36047,Kings County,40.688562000000005,-73.971417,35620,"New York-Newark-Jersey City, NY-NJ-PA",1,408,"New York-Newark, NY-NJ-CT-PA",N,N,3608,36057,36025,2017-2018,11,0.0,1,11
3601122,SUCCESS ACADEMY CHARTER SCHOOL - BENSONHURST,36,99 AVE P-4TH FL,BROOKLYN,NY,11204,36,36047,Kings County,40.607797000000005,-73.98489500000001,35620,"New York-Newark-Jersey City, NY-NJ-PA",1,408,"New York-Newark, NY-NJ-CT-PA",N,N,3610,36047,36017,2017-2018,11,0.0,1,11
3601123,SUCCESS ACADEMY CS - BERGEN BEACH,36,1420 E 68TH ST-3RD FL,BROOKLYN,NY,11234,36,36047,Kings County,40.620908,-73.913297,35620,"New York-Newark-Jersey City, NY-NJ-PA",1,408,"New York-Newark, NY-NJ-CT-PA",N,N,3608,36059,36019,2017-2018,11,0.0,1,11
3601124,ACHIEVEMENT FIRST NORTH BROOKLYN PREPARATORY CHARTER SCHOOL,36,200 WOODBINE ST,BROOKLYN,NY,11221,36,36047,Kings County,40.693885,-73.9149,35620,"New York-Newark-Jersey City, NY-NJ-PA",1,408,"New York-Newark, NY-NJ-CT-PA",N,N,3607,36054,36018,2017-2018,11,0.0,1,11
3601125,FAMILY LIFE ACADEMY CHARTER SCHOOL III,36,370 GERARD AVE,BRONX,NY,10451,36,36005,Bronx County,40.81631,-73.93015100000001,35620,"New York-Newark-Jersey City, NY-NJ-PA",1,408,"New York-Newark, NY-NJ-CT-PA",N,N,3615,36084,36029,2017-2018,11,0.0,1,11
3601126,PUC ACHIEVE CHARTER SCHOOL,36,14 MARK ST,ROCHESTER,NY,14605,36,36055,Monroe County,43.17388,-77.598391,40380,"Rochester, NY",1,464,"Rochester-Batavia-Seneca Falls, NY",N,N,3625,36137,36056,2017-2018,12,0.0,1,12
3601127,BRONX CHARTER SCHOOL FOR BETTER LEARNING II,36,2545 GUNTHER AVE,BRONX,NY,10469,36,36005,Bronx County,40.8642,-73.836301,35620,"New York-Newark-Jersey City, NY-NJ-PA",1,408,"New York-Newark, NY-NJ-CT-PA",N,N,3614,36080,36034,2017-2018,11,0.0,1,11
3601128,FINN ACADEMY-AN ELMIRA CHARTER SCHOOL,36,610 LAKE ST,ELMIRA,NY,14901,36,36015,Chemung County,42.096070000000005,-76.804401,21300,"Elmira, NY",1,236,"Elmira-Corning, NY",N,N,3623,36124,36058,2017-2018,13,0.0,1,13
3601129,ROSALYN YALOW CHARTER SCHOOL,36,116 E 169TH ST,BRONX,NY,10452,36,36005,Bronx County,40.836780000000005,-73.917281,35620,"New York-Newark-Jersey City, NY-NJ-PA",1,408,"New York-Newark, NY-NJ-CT-PA",N,N,3615,36084,36029,2017-2018,11,0.0,1,11
3601130,NEW VENTURES CHARTER SCHOOL,36,CORPORATE COMMONS ONE AT 1 TELEPORT DR,STATEN ISLAND,NY,10311,36,36085,Richmond County,40.605629,-74.179868,35620,"New York-Newark-Jersey City, NY-NJ-PA",1,408,"New York-Newark, NY-NJ-CT-PA",N,N,3611,36063,36024,2017-2018,11,0.0,1,11
3601131,SOUTH BRONX EARLY COLLEGE ACADEMY CHARTER SCHOOL,36,639 SAINT ANNS AVE,BRONX,NY,10455,36,36005,Bronx County,40.81695,-73.912041,35620,"New York-Newark-Jersey City, NY-NJ-PA",1,408,"New York-Newark, NY-NJ-CT-PA",N,N,3615,36084,36032,2017-2018,11,0.0,1,11
3601132,SOUTH BRONX CLASSICAL CHARTER SCHOOL III,36,3490 THIRD AVE,BRONX,NY,10456,36,36005,Bronx County,40.83034,-73.905811,35620,"New York-Newark-Jersey City, NY-NJ-PA",1,408,"New York-Newark, NY-NJ-CT-PA",N,N,3615,36079,36032,2017-2018,11,0.0,1,11
3601133,CHARTER HIGH SCHOOL FOR LAW AND SOCIAL JUSTICE,36,1960 UNIVERSITY AVE,BRONX,NY,10453,36,36005,Bronx County,40.853624,-73.911775,35620,"New York-Newark-Jersey City, NY-NJ-PA",1,408,"New York-Newark, NY-NJ-CT-PA",N,N,3615,36086,36029,2017-2018,11,0.0,1,11
3601134,INTERNATIONAL CHARTER SCHOOL OF NEW YORK (THE),36,47-55 WILLOUGHBY ST,BROOKLYN,NY,11201,36,36047,Kings County,40.69233,-73.986911,35620,"New York-Newark-Jersey City, NY-NJ-PA",1,408,"New York-Newark, NY-NJ-CT-PA",N,N,3608,36052,36025,2017-2018,11,0.0,1,11
3601135,CHARTER SCHOOL OF INQUIRY,36,404 EDISON ST,BUFFALO,NY,14222,36,36029,Erie County,42.934046,-78.80263500000001,15380,"Buffalo-Cheektowaga-Niagara Falls, NY",1,160,"Buffalo-Cheektowaga, NY",N,N,3626,36141,36063,2017-2018,11,0.0,1,11
3601136,NEW VISIONS CHTR HS-ADV MA/SCI IV,36,156-10 BAISLEY BLVD,JAMAICA,NY,11434,36,36081,Queens County,40.67406,-73.782741,35620,"New York-Newark-Jersey City, NY-NJ-PA",1,408,"New York-Newark, NY-NJ-CT-PA",N,N,3605,36032,36010,2017-2018,11,0.0,1,11
3601137,STOREFRONT ACADEMY CHARTER SCHOOL,36,432 E 138TH ST,BRONX,NY,10454,36,36005,Bronx County,40.808906,-73.92170800000001,35620,"New York-Newark-Jersey City, NY-NJ-PA",1,408,"New York-Newark, NY-NJ-CT-PA",N,N,3615,36084,36029,2017-2018,11,0.0,1,11
3601138,ATMOSPHERE ACADEMY PUBLIC CHARTER SCHOOL,36,22 MARBLE HILL AVE,BRONX,NY,10463,36,36061,New York County,40.87514,-73.91031100000001,35620,"New York-Newark-Jersey City, NY-NJ-PA",1,408,"New York-Newark, NY-NJ-CT-PA",N,N,3613,36072,36031,2017-2018,11,0.0,1,11
3601139,SCHOOL IN THE SQUARE PUBLIC CHARTER SCHOOL,36,120 WADSWORTH AVE,NEW YORK,NY,10033,36,36061,New York County,40.84874,-73.936031,35620,"New York-Newark-Jersey City, NY-NJ-PA",1,408,"New York-Newark, NY-NJ-CT-PA",N,N,3613,36071,36031,2017-2018,11,0.0,1,11
3601140,SUCCESS ACADEMY CHARTER SCHOOL-NYC 9,36,787 LAFAYETTE AVE,BROOKLYN,NY,11221,36,36047,Kings County,40.69125,-73.94067100000001,35620,"New York-Newark-Jersey City, NY-NJ-PA",1,408,"New York-Newark, NY-NJ-CT-PA",N,N,3608,36056,36025,2017-2018,11,0.0,1,11
3601141,SUCCESS ACADEMY CHARTER SCHOOL-NYC 13,36,120-27 141ST ST,JAMAICA,NY,11436,36,36081,Queens County,40.675589,-73.79978700000001,35620,"New York-Newark-Jersey City, NY-NJ-PA",1,408,"New York-Newark, NY-NJ-CT-PA",N,N,3605,36032,36010,2017-2018,11,0.0,1,11
3601142,BRONX CHARTER SCHOOL FOR EXCELLENCE 2,36,1804 HOLLAND AVE,BRONX,NY,10462,36,36005,Bronx County,40.845902,-73.86422900000001,35620,"New York-Newark-Jersey City, NY-NJ-PA",1,408,"New York-Newark, NY-NJ-CT-PA",N,N,3614,36080,36033,2017-2018,11,0.0,1,11
3601143,ACHIEVEMENT FIRST VOYAGER CHARTER SCHOOL,36,601 PARKSIDE AVE,BROOKLYN,NY,11226,36,36047,Kings County,40.656279000000005,-73.954088,35620,"New York-Newark-Jersey City, NY-NJ-PA",1,408,"New York-Newark, NY-NJ-CT-PA",N,N,3609,36043,36020,2017-2018,11,0.0,1,11
3601144,CAPITAL PREPARATORY (CP) HARLEM CHARTER SCHOOL,36,1 E 104TH ST,NEW YORK,NY,10029,36,36061,New York County,40.792860000000005,-73.951531,35620,"New York-Newark-Jersey City, NY-NJ-PA",1,408,"New York-Newark, NY-NJ-CT-PA",N,N,3613,36068,36030,2017-2018,11,0.0,1,11
3601145,COLLEGIATE ACADEMY-MATH-PERSONAL AWA,36,1962-84 LINDEN BLVD,BROOKLYN,NY,11207,36,36047,Kings County,40.658777,-73.88920300000001,35620,"New York-Newark-Jersey City, NY-NJ-PA",1,408,"New York-Newark, NY-NJ-CT-PA",N,N,3608,36060,36019,2017-2018,11,0.0,1,11
3601146,SUCCESS ACADEMY CHARTER SCHOOL-NYC 10,36,139 MENAHAN ST,BROOKLYN,NY,11221,36,36047,Kings County,40.696026,-73.919454,35620,"New York-Newark-Jersey City, NY-NJ-PA",1,408,"New York-Newark, NY-NJ-CT-PA",N,N,3607,36053,36018,2017-2018,11,0.0,1,11
3601147,SOUTH BRONX COMMUNITY CHARTER HIGH SCHOOL,36,890 WASHINGTON AVE,BRONX,NY,10451,36,36005,Bronx County,40.82362,-73.910801,35620,"New York-Newark-Jersey City, NY-NJ-PA",1,408,"New York-Newark, NY-NJ-CT-PA",N,N,3615,36079,36032,2017-2018,11,0.0,1,11
3601148,SUCCESS ACADEMY CHARTER SCHOOL-NYC 8,36,15 SNYDER AVE,BROOKLYN,NY,11226,36,36047,Kings County,40.64867,-73.95750100000001,35620,"New York-Newark-Jersey City, NY-NJ-PA",1,408,"New York-Newark, NY-NJ-CT-PA",N,N,3609,36042,36021,2017-2018,11,0.0,1,11
3601149,AMBER CHARTER SCHOOL II,36,3120 CORLEAR AVE,BRONX,NY,10463,36,36005,Bronx County,40.88069,-73.906991,35620,"New York-Newark-Jersey City, NY-NJ-PA",1,408,"New York-Newark, NY-NJ-CT-PA",N,N,3613,36081,36034,2017-2018,11,0.0,1,11
3601150,BROOKLYN PROSPECT CHARTER SCHOOL-CSD 13,36,300 WILLOUGHBY AVE,BROOKLYN,NY,11205,36,36047,Kings County,40.69256,-73.958341,35620,"New York-Newark-Jersey City, NY-NJ-PA",1,408,"New York-Newark, NY-NJ-CT-PA",N,N,3608,36057,36025,2017-2018,11,0.0,1,11
3601151,SUCCESS ACADEMY CHARTER SCHOOL-NYC 4,36,10-45 NAMEOKE ST,FAR ROCKAWAY,NY,11691,36,36081,Queens County,40.60394,-73.749851,35620,"New York-Newark-Jersey City, NY-NJ-PA",1,408,"New York-Newark, NY-NJ-CT-PA",N,N,3605,36023,36010,2017-2018,11,0.0,1,11
3601152,GROWING UP GREEN CHARTER SCHOOL II,36,84-35 152ND ST,JAMAICA,NY,11432,36,36081,Queens County,40.71307,-73.807541,35620,"New York-Newark-Jersey City, NY-NJ-PA",1,408,"New York-Newark, NY-NJ-CT-PA",N,N,3606,36024,36011,2017-2018,11,0.0,1,11
3601153,ROCHESTER PREP CHARTER SCHOOL 3,36,85 ST JACOB ST,ROCHESTER,NY,14621,36,36055,Monroe County,43.17779,-77.591811,40380,"Rochester, NY",1,464,"Rochester-Batavia-Seneca Falls, NY",N,N,3625,36137,36055,2017-2018,12,0.0,1,12
3601154,NEW YORK CITY CHARTER SCHOOL OF THE ARTS,36,440 W 53RD ST-4TH FL,NEW YORK,NY,10019,36,36061,New York County,40.765924,-73.989844,35620,"New York-Newark-Jersey City, NY-NJ-PA",1,408,"New York-Newark, NY-NJ-CT-PA",N,N,3610,36067,36027,2017-2018,11,0.0,1,11
3601155,WHIN MUSIC COMMUNITY CHARTER SCHOOL,36,401 W 164TH ST-4TH FL,NEW YORK,NY,10032,36,36061,New York County,40.836853000000005,-73.937267,35620,"New York-Newark-Jersey City, NY-NJ-PA",1,408,"New York-Newark, NY-NJ-CT-PA",N,N,3613,36072,36031,2017-2018,11,0.0,1,11
3601156,SOUTH BRONX CLASSICAL CHARTER SCHOOL IV,36,3458 3RD AVE,BRONX,NY,10456,36,36005,Bronx County,40.82952,-73.906201,35620,"New York-Newark-Jersey City, NY-NJ-PA",1,408,"New York-Newark, NY-NJ-CT-PA",N,N,3615,36079,36032,2017-2018,11,0.0,1,11
3601157,BRONX CHARTER SCHOOL FOR EXCELLENCE 3,36,3956 CARPENTER AVE,BRONX,NY,10466,36,36005,Bronx County,40.88836,-73.863338,35620,"New York-Newark-Jersey City, NY-NJ-PA",1,408,"New York-Newark, NY-NJ-CT-PA",N,N,3616,36083,36036,2017-2018,11,0.0,1,11
3601158,LEGACY COLLEGE PREPARATORY CHARTER SCHOOL,36,416 WILLIS AVE,BRONX,NY,10454,36,36005,Bronx County,40.81313,-73.91949100000001,35620,"New York-Newark-Jersey City, NY-NJ-PA",1,408,"New York-Newark, NY-NJ-CT-PA",N,N,3615,36084,36029,2017-2018,11,0.0,1,11
3601159,SUCCESS ACADEMY CHARTER SCHOOL-HARLEM 6,36,461 W 131ST ST-FLS 1 AND 2,NEW YORK,NY,10027,36,36061,New York County,40.816303000000005,-73.953467,35620,"New York-Newark-Jersey City, NY-NJ-PA",1,408,"New York-Newark, NY-NJ-CT-PA",N,N,3613,36070,36031,2017-2018,11,0.0,1,11
3601160,BROOKLYN EMERGING LEADERS ACADEMY CHARTER SCHOOL,36,125 STUYVESANT AVE-RM 205,BROOKLYN,NY,11221,36,36047,Kings County,40.691273,-73.933445,35620,"New York-Newark-Jersey City, NY-NJ-PA",1,408,"New York-Newark, NY-NJ-CT-PA",N,N,3608,36056,36025,2017-2018,11,0.0,1,11
3601161,NEW YORK CENTER FOR AUTISM CHARTER SCHOOL BRONX,36,977 FOX ST 2ND FL,BRONX,NY,10459,36,36005,Bronx County,40.822112,-73.89439300000001,35620,"New York-Newark-Jersey City, NY-NJ-PA",1,408,"New York-Newark, NY-NJ-CT-PA",N,N,3615,36085,36032,2017-2018,11,0.0,1,11
3601162,NEW VISIONS CHARTER HIGH SCHOOL FOR THE HUMANITIES IV,36,100-00 BEACH CHANNEL DR,ROCKAWAY PARK,NY,11694,36,36081,Queens County,40.58651,-73.82269000000001,35620,"New York-Newark-Jersey City, NY-NJ-PA",1,408,"New York-Newark, NY-NJ-CT-PA",N,N,3605,36023,36015,2017-2018,11,0.0,1,11
3601163,ELMWOOD VILLAGE CHARTER SCHOOL HERTEL,36,665 HERTEL AVE,BUFFALO,NY,14207,36,36029,Erie County,42.945278,-78.884125,15380,"Buffalo-Cheektowaga-Niagara Falls, NY",1,160,"Buffalo-Cheektowaga, NY",N,N,3626,36149,36060,2017-2018,11,0.0,1,11
3601164,FORTE PREPARATORY ACADEMY CHARTER SCHOOL,36,32-20 108TH ST,EAST ELMHURST,NY,11369,36,36081,Queens County,40.759363,-73.861564,35620,"New York-Newark-Jersey City, NY-NJ-PA",1,408,"New York-Newark, NY-NJ-CT-PA",N,N,3614,36035,36013,2017-2018,11,0.0,1,11
3601165,BRILLA COLLEGE PREPARATORY CHARTER SCHOOL VERITAS,36,500 COURTLANDT AVE,BRONX,NY,10451,36,36005,Bronx County,40.815432,-73.919887,35620,"New York-Newark-Jersey City, NY-NJ-PA",1,408,"New York-Newark, NY-NJ-CT-PA",N,N,3615,36084,36032,2017-2018,11,0.0,1,11
3601166,HEBREW LANGUAGE ACADEMY CHARTER SCHOOL 2,36,1870 STILLWELL AVE,BROOKLYN,NY,11223,36,36047,Kings County,40.600865,-73.986348,35620,"New York-Newark-Jersey City, NY-NJ-PA",1,408,"New York-Newark, NY-NJ-CT-PA",N,N,3610,36047,36022,2017-2018,11,0.0,1,11
3601167,SUCCESS ACADEMY CHARTER SCHOOL-HUDSON YARDS,36,500 W 41ST ST,NEW YORK,NY,10018,36,36061,New York County,40.759011,-73.99647,35620,"New York-Newark-Jersey City, NY-NJ-PA",1,408,"New York-Newark, NY-NJ-CT-PA",N,N,3610,36075,36027,2017-2018,11,0.0,1,11
3601168,EXPLORATION ELE CS - SCIENCE-TECHNOL,36,1001 LAKE AVE,ROCHESTER,NY,14613,36,36055,Monroe County,43.184094,-77.632782,40380,"Rochester, NY",1,464,"Rochester-Batavia-Seneca Falls, NY",N,N,3625,36136,36056,2017-2018,12,0.0,1,12
3602300,ABBOTT UNION FREE SCHOOL DISTRICT,36,100 N BROADWAY,IRVINGTON,NY,10533,36,36119,Westchester County,41.042516,-73.86354,35620,"New York-Newark-Jersey City, NY-NJ-PA",1,408,"New York-Newark, NY-NJ-CT-PA",N,N,3617,36092,36035,2017-2018,21,0.0,1,21
3602310,GLENS FALLS COMMON SCHOOL DISTRICT,36,120 LAWRENCE ST,GLENS FALLS,NY,12801,36,36113,Warren County,43.314311,-73.632121,24020,"Glens Falls, NY",1,104,"Albany-Schenectady, NY",N,N,3621,36114,36045,2017-2018,13,0.0,1,13
3602340,SOUTH JEFFERSON CENTRAL SCHOOL DISTRICT,36,13180 US RT 11,ADAMS CENTER,NY,13606,36,36045,Jefferson County,43.85877,-76.00631,48060,"Watertown-Fort Drum, NY",1,N,N,N,N,3621,36117,36048,2017-2018,41,18.61,2,"41, 42"
3602370,ADDISON CENTRAL SCHOOL DISTRICT,36,7 CLEVELAND DR-STE 101,ADDISON,NY,14801,36,36101,Steuben County,42.100518,-77.231362,18500,"Corning, NY",2,236,"Elmira-Corning, NY",N,N,3623,36132,36058,2017-2018,42,0.0,1,42
3602400,AFTON CENTRAL SCHOOL DISTRICT,36,29 ACADEMY ST,AFTON,NY,13730,36,36017,Chenango County,42.230155,-75.527945,N,N,0,N,N,N,N,3622,36122,36052,2017-2018,42,0.0,1,42
3602430,AKRON CENTRAL SCHOOL DISTRICT,36,47 BLOOMINGDALE AVE,AKRON,NY,14001,36,36029,Erie County,43.024464,-78.489686,15380,"Buffalo-Cheektowaga-Niagara Falls, NY",1,160,"Buffalo-Cheektowaga, NY",N,N,3627,36144,36061,2017-2018,31,0.0,1,31
3602460,ALBANY CITY SCHOOL DISTRICT,36,ACADEMY PARK,ALBANY,NY,12207,36,36001,Albany County,42.653066,-73.754947,10580,"Albany-Schenectady-Troy, NY",1,104,"Albany-Schenectady, NY",N,N,3620,36109,36044,2017-2018,13,0.01,2,"13, 21"
3602520,ALBION CENTRAL SCHOOL DISTRICT,36,324 EAST AVE,ALBION,NY,14411,36,36073,Orleans County,43.239924,-78.18381000000001,40380,"Rochester, NY",1,464,"Rochester-Batavia-Seneca Falls, NY",N,N,3627,36139,36062,2017-2018,32,0.0,1,32
3602550,ALDEN CENTRAL SCHOOL DISTRICT,36,13190 PARK ST,ALDEN,NY,14004,36,36029,Erie County,42.903498,-78.496356,15380,"Buffalo-Cheektowaga-Niagara Falls, NY",1,160,"Buffalo-Cheektowaga, NY",N,N,3627,36144,36059,2017-2018,41,21.22,2,"21, 41"
3602580,ALEXANDER CENTRAL SCHOOL DISTRICT,36,3314 BUFFALO ST,ALEXANDER,NY,14005,36,36037,Genesee County,42.901095000000005,-78.260596,12860,"Batavia, NY",2,464,"Rochester-Batavia-Seneca Falls, NY",N,N,3627,36139,36061,2017-2018,32,43.93,2,"32, 41"
3602670,ALEXANDRIA CENTRAL SCHOOL DISTRICT,36,34 BOLTON AVE,ALEXANDRIA BAY,NY,13607,36,36045,Jefferson County,44.335511,-75.910398,48060,"Watertown-Fort Drum, NY",1,N,N,N,N,3621,36116,36048,2017-2018,42,0.0,1,42
3602700,ALFRED-ALMOND CENTRAL SCHOOL DISTRICT,36,6795 RT 21,ALMOND,NY,14804,36,36003,Allegany County,42.295915,-77.751256,N,N,0,N,N,N,N,3623,36148,36057,2017-2018,41,0.0,1,41
3602730,WINDSOR CENTRAL SCHOOL DISTRICT,36,1191 NY RT 79,WINDSOR,NY,13865,36,36007,Broome County,42.06573,-75.642927,13780,"Binghamton, NY",1,N,N,N,N,3622,36122,36052,2017-2018,42,34.96,2,"22, 42"
3602820,ALTMAR-PARISH-WILLIAMSTOWN CENTRAL SCHOOL DISTRICT,36,639 COUNTY RT 22,PARISH,NY,13131,36,36075,Oswego County,43.443526,-76.053129,45060,"Syracuse, NY",1,532,"Syracuse-Auburn, NY",N,N,3622,36120,36048,2017-2018,42,0.0,1,42
3602880,AMAGANSETT UNION FREE SCHOOL DISTRICT,36,320 MAIN ST,AMAGANSETT,NY,11930,36,36103,Suffolk County,40.976394,-72.137727,35620,"New York-Newark-Jersey City, NY-NJ-PA",1,408,"New York-Newark, NY-NJ-CT-PA",N,N,3601,36001,36001,2017-2018,31,0.0,1,31
3602920,AMHERST CENTRAL SCHOOL DISTRICT,36,55 KINGS HWY,AMHERST,NY,14226,36,36029,Erie County,42.956188,-78.790369,15380,"Buffalo-Cheektowaga-Niagara Falls, NY",1,160,"Buffalo-Cheektowaga, NY",N,N,3626,36146,36061,2017-2018,21,0.0,1,21
3602940,AMITYVILLE UNION FREE SCHOOL DISTRICT,36,150 PARK AVE,AMITYVILLE,NY,11701,36,36103,Suffolk County,40.677122,-73.41873100000001,35620,"New York-Newark-Jersey City, NY-NJ-PA",1,408,"New York-Newark, NY-NJ-CT-PA",N,N,3602,36011,36008,2017-2018,21,0.0,1,21
3602970,AMSTERDAM CITY SCHOOL DISTRICT,36,140 SARATOGA AVE,AMSTERDAM,NY,12010,36,36057,Montgomery County,42.964211,-74.176533,11220,"Amsterdam, NY",2,104,"Albany-Schenectady, NY",N,N,3620,36111,36046,2017-2018,31,29.83,2,"31, 41"
3603000,ANDES CENTRAL SCHOOL DISTRICT,36,85 DELAWARE AVE,ANDES,NY,13731,36,36025,Delaware County,42.189829,-74.78730900000001,N,N,0,N,N,N,N,3619,36101,36051,2017-2018,42,0.0,1,42
3603030,ANDOVER CENTRAL SCHOOL DISTRICT,36,31-35 ELM ST,ANDOVER,NY,14806,36,36003,Allegany County,42.159414,-77.791473,N,N,0,N,N,N,N,3623,36148,36057,2017-2018,42,0.0,1,42
3603060,SCHENEVUS CENTRAL SCHOOL DISTRICT,36,159 MAIN ST,SCHENEVUS,NY,12155,36,36077,Otsego County,42.550740000000005,-74.819055,36580,"Oneonta, NY",2,N,N,N,N,3619,36101,36051,2017-2018,43,0.0,1,43
3603180,ARDSLEY UNION FREE SCHOOL DISTRICT,36,500 FARM RD,ARDSLEY,NY,10502,36,36119,Westchester County,41.021909,-73.83332,35620,"New York-Newark-Jersey City, NY-NJ-PA",1,408,"New York-Newark, NY-NJ-CT-PA",N,N,3616,36092,36035,2017-2018,21,0.0,1,21
3603210,ARGYLE CENTRAL SCHOOL DISTRICT,36,5023 STATE RT 40,ARGYLE,NY,12809,36,36115,Washington County,43.241171,-73.484823,24020,"Glens Falls, NY",1,104,"Albany-Schenectady, NY",N,N,3621,36113,36045,2017-2018,41,0.0,1,41
3603240,ARKPORT CENTRAL SCHOOL DISTRICT,36,35 EAST AVE,ARKPORT,NY,14807,36,36101,Steuben County,42.395559,-77.690248,18500,"Corning, NY",2,236,"Elmira-Corning, NY",N,N,3623,36133,36058,2017-2018,33,0.0,1,33
3603270,ARLINGTON CENTRAL SCHOOL DISTRICT,36,144 TODD HILL RD,LAGRANGEVILLE,NY,12540,36,36027,Dutchess County,41.65564,-73.777441,35620,"New York-Newark-Jersey City, NY-NJ-PA",1,408,"New York-Newark, NY-NJ-CT-PA",N,N,3619,36105,36041,2017-2018,21,20.33,2,"21, 41"
3603420,ATTICA CENTRAL SCHOOL DISTRICT,36,3338 E MAIN ST,ATTICA,NY,14011,36,36121,Wyoming County,42.860784,-78.261145,N,N,0,N,N,N,N,3627,36147,36059,2017-2018,41,31.55,2,"32, 41"
3603480,AUBURN CITY SCHOOL DISTRICT,36,78 THORNTON AVE,AUBURN,NY,13021,36,36011,Cayuga County,42.9136,-76.5791,12180,"Auburn, NY",2,532,"Syracuse-Auburn, NY",N,N,3624,36126,36054,2017-2018,32,0.0,1,32
3603630,AVOCA CENTRAL SCHOOL DISTRICT,36,17 OLIVER ST #29,AVOCA,NY,14809,36,36101,Steuben County,42.411905,-77.416186,18500,"Corning, NY",2,236,"Elmira-Corning, NY",N,N,3623,36132,36058,2017-2018,42,0.0,1,42
3603660,AVON CENTRAL SCHOOL DISTRICT,36,191 CLINTON ST,AVON,NY,14414,36,36051,Livingston County,42.906023000000005,-77.739181,40380,"Rochester, NY",1,464,"Rochester-Batavia-Seneca Falls, NY",N,N,3627,36133,36059,2017-2018,31,0.0,1,31
3603720,BABYLON UNION FREE SCHOOL DISTRICT,36,50 RAILROAD AVE,BABYLON,NY,11702,36,36103,Suffolk County,40.699047,-73.325216,35620,"New York-Newark-Jersey City, NY-NJ-PA",1,408,"New York-Newark, NY-NJ-CT-PA",N,N,3602,36009,36004,2017-2018,21,0.0,1,21
3603810,BAINBRIDGE-GUILFORD CENTRAL SCHOOL DISTRICT,36,18 JULIAND ST,BAINBRIDGE,NY,13733,36,36017,Chenango County,42.29412,-75.484474,N,N,0,N,N,N,N,3622,36122,36052,2017-2018,42,0.0,1,42
3603840,BALDWIN UNION FREE SCHOOL DISTRICT,36,960 HASTINGS ST,BALDWIN,NY,11510,36,36059,Nassau County,40.636088,-73.604658,35620,"New York-Newark-Jersey City, NY-NJ-PA",1,408,"New York-Newark, NY-NJ-CT-PA",N,N,3604,36021,36009,2017-2018,21,0.0,1,21
3603870,BALDWINSVILLE CENTRAL SCHOOL DISTRICT,36,29 E ONEIDA ST,BALDWINSVILLE,NY,13027,36,36067,Onondaga County,43.164128,-76.33301800000001,45060,"Syracuse, NY",1,532,"Syracuse-Auburn, NY",N,N,3624,36120,36050,2017-2018,21,8.59,2,"21, 41"
3603930,BALLSTON SPA CENTRAL SCHOOL DISTRICT,36,70 MALTA AVE,BALLSTON SPA,NY,12020,36,36091,Saratoga County,43.004545,-73.84561000000001,10580,"Albany-Schenectady-Troy, NY",1,104,"Albany-Schenectady, NY",N,N,3621,36112,36049,2017-2018,23,36.82,2,"23, 41"
3603960,BARKER CENTRAL SCHOOL DISTRICT,36,1628 QUAKER RD,BARKER,NY,14012,36,36063,Niagara County,43.336223,-78.55786,15380,"Buffalo-Cheektowaga-Niagara Falls, NY",1,160,"Buffalo-Cheektowaga, NY",N,N,3627,36144,36062,2017-2018,42,0.0,1,42
3603990,BATAVIA CITY SCHOOL DISTRICT,36,260 STATE ST,BATAVIA,NY,14020,36,36037,Genesee County,43.011707,-78.17961100000001,12860,"Batavia, NY",2,464,"Rochester-Batavia-Seneca Falls, NY",N,N,3627,36139,36061,2017-2018,32,0.0,1,32
3604050,BATH CENTRAL SCHOOL DISTRICT,36,25 ELLAS AVE,BATH,NY,14810,36,36101,Steuben County,42.340174000000005,-77.323518,18500,"Corning, NY",2,236,"Elmira-Corning, NY",N,N,3623,36132,36058,2017-2018,32,0.0,1,32
3604080,BAY SHORE UNION FREE SCHOOL DISTRICT,36,75 W PERKAL ST,BAY SHORE,NY,11706,36,36103,Suffolk County,40.7329,-73.2534,35620,"New York-Newark-Jersey City, NY-NJ-PA",1,408,"New York-Newark, NY-NJ-CT-PA",N,N,3602,36007,36004,2017-2018,21,0.0,1,21
3604110,BAYPORT-BLUE POINT UNION FREE SCHOOL DISTRICT,36,189 ACADEMY ST,BAYPORT,NY,11705,36,36103,Suffolk County,40.7416,-73.0548,35620,"New York-Newark-Jersey City, NY-NJ-PA",1,408,"New York-Newark, NY-NJ-CT-PA",N,N,3602,36007,36003,2017-2018,21,0.0,1,21
3604140,BEACON CITY SCHOOL DISTRICT,36,10 EDUCATION DR,BEACON,NY,12508,36,36027,Dutchess County,41.4961,-73.97200000000001,35620,"New York-Newark-Jersey City, NY-NJ-PA",1,408,"New York-Newark, NY-NJ-CT-PA",N,N,3618,36104,36041,2017-2018,21,0.0,1,21
3604200,BEAVER RIVER CENTRAL SCHOOL DISTRICT,36,9508 ARTZ RD,BEAVER FALLS,NY,13305,36,36049,Lewis County,43.880467,-75.437762,N,N,0,N,N,N,N,3621,36117,36047,2017-2018,42,0.0,1,42
3604290,BEEKMANTOWN CENTRAL SCHOOL DISTRICT,36,37 EAGLE WAY,WEST CHAZY,NY,12992,36,36019,Clinton County,44.773627000000005,-73.490323,38460,"Plattsburgh, NY",2,N,N,N,N,3621,36115,36045,2017-2018,42,27.17,2,"41, 42"
3604350,BELFAST CENTRAL SCHOOL DISTRICT,36,1 KING ST,BELFAST,NY,14711,36,36003,Allegany County,42.341589,-78.117093,N,N,0,N,N,N,N,3623,36148,36057,2017-2018,43,0.0,1,43
3604370,BELLEVILLE-HENDERSON CENTRAL SCHOOL DISTRICT,36,8372 COUNTY RT 75,ADAMS,NY,13605,36,36045,Jefferson County,43.78056,-76.119,48060,"Watertown-Fort Drum, NY",1,N,N,N,N,3621,36120,36048,2017-2018,42,0.0,1,42
3604410,BELLMORE UNION FREE SCHOOL DISTRICT,36,580 WINTHROP AVE,BELLMORE,NY,11710,36,36059,Nassau County,40.666146000000005,-73.52496500000001,35620,"New York-Newark-Jersey City, NY-NJ-PA",1,408,"New York-Newark, NY-NJ-CT-PA",N,N,3604,36014,36008,2017-2018,21,0.0,1,21
3604530,BEMUS POINT CENTRAL SCHOOL DISTRICT,36,3980 DUTCH HOLLOW RD,BEMUS POINT,NY,14712,36,36013,Chautauqua County,42.161125,-79.323188,27460,"Jamestown-Dunkirk-Fredonia, NY",2,N,N,N,N,3623,36150,36057,2017-2018,41,0.0,1,41
3604590,BERKSHIRE UNION FREE SCHOOL DISTRICT,36,13640 RT 22,CANAAN,NY,12029,36,36021,Columbia County,42.415847,-73.406324,26460,"Hudson, NY",2,104,"Albany-Schenectady, NY",N,N,3619,36107,36043,2017-2018,41,42.17,2,"32, 41"
3604620,BERLIN CENTRAL SCHOOL DISTRICT,36,17400 NY 22,CHERRY PLAIN,NY,12040,36,36083,Rensselaer County,42.63789,-73.357506,10580,"Albany-Schenectady-Troy, NY",1,104,"Albany-Schenectady, NY",N,N,3619,36107,36043,2017-2018,42,0.0,1,42
3604650,BERNE-KNOX-WESTERLO CENTRAL SCHOOL DISTRICT,36,1738 HELDERBERG TRAIL,BERNE,NY,12023,36,36001,Albany County,42.625655,-74.144176,10580,"Albany-Schenectady-Troy, NY",1,104,"Albany-Schenectady, NY",N,N,3620,36111,36046,2017-2018,42,0.0,1,42
3604710,BETHLEHEM CENTRAL SCHOOL DISTRICT,36,700 DELAWARE AVE,DELMAR,NY,12054,36,36001,Albany County,42.612352,-73.856722,10580,"Albany-Schenectady-Troy, NY",1,104,"Albany-Schenectady, NY",N,N,3620,36109,36044,2017-2018,21,8.93,2,"21, 41"
3604740,BETHPAGE UNION FREE SCHOOL DISTRICT,36,10 CHERRY AVE,BETHPAGE,NY,11714,36,36059,Nassau County,40.754878,-73.483164,35620,"New York-Newark-Jersey City, NY-NJ-PA",1,408,"New York-Newark, NY-NJ-CT-PA",N,N,3603,36015,36005,2017-2018,21,0.0,1,21
3604757,GILBERTSVILLE-MOUNT UPTON CENTRAL SCHOOL DISTRICT,36,693 STATE HWY 51,GILBERTSVILLE,NY,13776,36,36077,Otsego County,42.444519,-75.347536,36580,"Oneonta, NY",2,N,N,N,N,3619,36122,36051,2017-2018,42,0.0,1,42
3604758,KIRYAS JOEL VILLAGE UNION FREE SCHOOL DISTRICT,36,48 BAKERTOWN RD-STE 401,MONROE,NY,10950,36,36071,Orange County,41.33385,-74.161361,35620,"New York-Newark-Jersey City, NY-NJ-PA",1,408,"New York-Newark, NY-NJ-CT-PA",N,N,3618,36098,36039,2017-2018,21,0.0,1,21
3604870,BINGHAMTON CITY SCHOOL DISTRICT,36,164 HAWLEY ST,BINGHAMTON,NY,13901,36,36007,Broome County,42.09885,-75.903454,13780,"Binghamton, NY",1,N,N,N,N,3622,36123,36052,2017-2018,13,0.0,1,13
3604920,EAST BLOOMFIELD CENTRAL SCHOOL DISTRICT,36,45 MAPLE AVE-STE A,BLOOMFIELD,NY,14469,36,36069,Ontario County,42.89691,-77.420721,40380,"Rochester, NY",1,464,"Rochester-Batavia-Seneca Falls, NY",N,N,3627,36131,36055,2017-2018,41,0.0,1,41
3605010,BOLTON CENTRAL SCHOOL DISTRICT,36,26 HORICON AVE,BOLTON LANDING,NY,12814,36,36113,Warren County,43.560572,-73.65589200000001,24020,"Glens Falls, NY",1,104,"Albany-Schenectady, NY",N,N,3621,36114,36045,2017-2018,42,0.0,1,42
