LEAID,NAME,OPSTFIPS,STREET,CITY,STATE,ZIP,STFIP,CNTY,NMCNTY,LAT,LON,CBSA,NMCBSA,CBSATYPE,CSA,NMCSA,NECTA,NMNECTA,CD,SLDL,SLDU,SCHOOLYEAR,LOCALE,LOC_OTHER,LOC_COUNT,LOC_SCH
4200001,Bedford County Technical Center,42,195 Pennknoll Road,Everett,PA,15537,42,42009,Bedford County,40.022804,-78.437026,N,N,0,N,N,N,N,4209,42078,42035,2017-2018,41,0.0,1,41
4200003,Susquehanna County CTC,42,2380 Elk Lake School Road,Springville,PA,18844,42,42115,Susquehanna County,41.7386,-75.9558,N,N,0,N,N,N,N,4210,42110,42023,2017-2018,42,0.0,1,42
4200007,Fulton County AVTS,42,145 East Cherry Street,McConnellsburg,PA,17233,42,42057,Fulton County,39.929177,-77.999026,N,N,0,N,N,N,N,4209,42078,42030,2017-2018,42,0.0,1,42
4200011,Keystone Education Center CS,42,425 South Good Hope Rd.,Greenville,PA,16125,42,42085,Mercer County,41.399107,-80.44654200000001,49660,"Youngstown-Warren-Boardman, OH-PA",1,566,"Youngstown-Warren, OH-PA",N,N,4203,42007,42050,2017-2018,41,0.0,1,41
4200012,Chester Co Family Academy CS,42,530 E. Union Street,West Chester,PA,19382,42,42029,Chester County,39.96026,-75.59477100000001,37980,"Philadelphia-Camden-Wilmington, PA-NJ-DE-MD",1,428,"Philadelphia-Reading-Camden, PA-NJ-DE-MD",N,N,4206,42156,42019,2017-2018,21,0.0,1,21
4200013,Community Academy of Philadelphia CS,42,1100 E Erie Ave,Philadelphia,PA,19124,42,42101,Philadelphia County,40.004516,-75.106696,37980,"Philadelphia-Camden-Wilmington, PA-NJ-DE-MD",1,428,"Philadelphia-Reading-Camden, PA-NJ-DE-MD",N,N,4201,42180,42002,2017-2018,11,0.0,1,11
4200014,Harambee Institute of Science and Technology CS,42,640 N 66th St,Philadelphia,PA,19151,42,42101,Philadelphia County,39.973303,-75.251942,37980,"Philadelphia-Camden-Wilmington, PA-NJ-DE-MD",1,428,"Philadelphia-Reading-Camden, PA-NJ-DE-MD",N,N,4201,42192,42007,2017-2018,11,0.0,1,11
4200015,World Communications CS,42,512-20 S Broad St.,Philadelphia,PA,19146,42,42101,Philadelphia County,39.943929,-75.16578700000001,37980,"Philadelphia-Camden-Wilmington, PA-NJ-DE-MD",1,428,"Philadelphia-Reading-Camden, PA-NJ-DE-MD",N,N,4202,42186,42001,2017-2018,11,0.0,1,11
4200016,Youth Build Phila CS,42,1231 N Broad St,Philadelphia,PA,19122,42,42101,Philadelphia County,39.9729,-75.158631,37980,"Philadelphia-Camden-Wilmington, PA-NJ-DE-MD",1,428,"Philadelphia-Reading-Camden, PA-NJ-DE-MD",N,N,4201,42181,42001,2017-2018,11,0.0,1,11
4200017,Manchester Academic CS,42,1214 Liverpool St,Pittsburgh,PA,15233,42,42003,Allegheny County,40.456757,-80.02483600000001,38300,"Pittsburgh, PA",1,430,"Pittsburgh-New Castle-Weirton, PA-OH-WV",N,N,4214,42019,42042,2017-2018,11,0.0,1,11
4200018,Urban Pathways 6-12 CS,42,914 Penn Ave,Pittsburgh,PA,15222,42,42003,Allegheny County,40.44413,-79.99746,38300,"Pittsburgh, PA",1,430,"Pittsburgh-New Castle-Weirton, PA-OH-WV",N,N,4214,42019,42042,2017-2018,11,0.0,1,11
4200019,Urban Academy of Greater Pittsburgh CS,42,437 Turett Street,Pittsburgh,PA,15206,42,42003,Allegheny County,40.462363,-79.909825,38300,"Pittsburgh, PA",1,430,"Pittsburgh-New Castle-Weirton, PA-OH-WV",N,N,4214,42024,42038,2017-2018,11,0.0,1,11
4200020,Robert Benjamin Wiley Community CS,42,1446 East Lake Rd,Erie,PA,16507,42,42049,Erie County,42.142217,-80.05477400000001,21500,"Erie, PA",1,240,"Erie-Meadville, PA",N,N,4203,42001,42049,2017-2018,13,0.0,1,13
4200021,Dr Robert Ketterer CS Inc,42,1133 Village Way,Latrobe,PA,15650,42,42129,Westmoreland County,40.307590000000005,-79.392951,38300,"Pittsburgh, PA",1,430,"Pittsburgh-New Castle-Weirton, PA-OH-WV",N,N,4218,42055,42039,2017-2018,21,0.0,1,21
4200022,Cresson Secure Treatment Unit,42,251 Corrections Road,Cresson,PA,16630,42,42021,Cambria County,40.45787,-78.564001,27780,"Johnstown, PA",1,306,"Johnstown-Somerset, PA",N,N,4209,42072,42035,2017-2018,41,-2.0,-2,N
4200023,Centre Learning Community CS,42,2643 W College Ave,State College,PA,16801,42,42027,Centre County,40.76693,-77.883796,44300,"State College, PA",1,524,"State College-DuBois, PA",N,N,4205,42171,42034,2017-2018,23,0.0,1,23
4200024,Nittany Valley CS,42,1612 Norma St,State College,PA,16801,42,42027,Centre County,40.78289,-77.841151,44300,"State College, PA",1,524,"State College-DuBois, PA",N,N,4205,42077,42034,2017-2018,13,0.0,1,13
4200025,South Mountain Secure Trmnt Unit,42,10056 S Mountain Rd,South Mountain,PA,17261,42,42055,Franklin County,39.844202,-77.495645,16540,"Chambersburg-Waynesboro, PA",1,548,"Washington-Baltimore-Arlington, DC-MD-VA-WV-PA",N,N,4209,42090,42033,2017-2018,41,0.0,1,41
4200026,La Academia Partnership Charter School,42,30 N Ann St,Lancaster,PA,17602,42,42071,Lancaster County,40.039764,-76.2954,29540,"Lancaster, PA",1,N,N,N,N,4216,42096,42013,2017-2018,13,0.0,1,13
4200027,Sylvan Heights Science CS,42,915 S 13th St,Harrisburg,PA,17104,42,42043,Dauphin County,40.25349,-76.86399,25420,"Harrisburg-Carlisle, PA",1,276,"Harrisburg-York-Lebanon, PA",N,N,4211,42103,42015,2017-2018,13,0.0,1,13
4200028,Susq-Cyber CS,42,240 Market Street,Bloomsburg,PA,17815,42,42037,Columbia County,41.001433,-76.457627,14100,"Bloomsburg-Berwick, PA",1,146,"Bloomsburg-Berwick-Sunbury, PA",N,N,4211,42109,42027,2017-2018,13,0.0,1,13
4200030,School Lane CS,42,2400 Bristol Pike,Bensalem,PA,19020,42,42017,Bucks County,40.079658,-74.94831,37980,"Philadelphia-Camden-Wilmington, PA-NJ-DE-MD",1,428,"Philadelphia-Reading-Camden, PA-NJ-DE-MD",N,N,4208,42018,42006,2017-2018,21,0.0,1,21
4200035,Chester Community CS,42,302 East 5th St,Chester,PA,19013,42,42045,Delaware County,39.849601,-75.35700200000001,37980,"Philadelphia-Camden-Wilmington, PA-NJ-DE-MD",1,428,"Philadelphia-Reading-Camden, PA-NJ-DE-MD",N,N,4201,42159,42009,2017-2018,21,0.0,1,21
4200036,Preparatory CS of Mathematics Science Tech and Careers,42,1928 Point Breeze Ave,Philadelphia,PA,19145,42,42101,Philadelphia County,39.92846,-75.186841,37980,"Philadelphia-Camden-Wilmington, PA-NJ-DE-MD",1,428,"Philadelphia-Reading-Camden, PA-NJ-DE-MD",N,N,4202,42186,42008,2017-2018,11,0.0,1,11
4200038,Imhotep Institute CHS,42,6201 N. 21st St.,Philadelphia,PA,19138,42,42101,Philadelphia County,40.049240000000005,-75.154611,37980,"Philadelphia-Camden-Wilmington, PA-NJ-DE-MD",1,428,"Philadelphia-Reading-Camden, PA-NJ-DE-MD",N,N,4202,42201,42004,2017-2018,11,0.0,1,11
4200039,Alliance for Progress CS,42,1821-39 Cecil B Moore Ave,Philadelphia,PA,19121,42,42101,Philadelphia County,39.979859000000005,-75.165431,37980,"Philadelphia-Camden-Wilmington, PA-NJ-DE-MD",1,428,"Philadelphia-Reading-Camden, PA-NJ-DE-MD",N,N,4202,42181,42003,2017-2018,11,0.0,1,11
4200040,Multicultural Academy CS,42,3821 North Broad Street,Philadelphia,PA,19140,42,42101,Philadelphia County,40.01111,-75.15064100000001,37980,"Philadelphia-Camden-Wilmington, PA-NJ-DE-MD",1,428,"Philadelphia-Reading-Camden, PA-NJ-DE-MD",N,N,4202,42197,42003,2017-2018,11,0.0,1,11
4200041,West Oak Lane CS,42,7115 Stenton Ave,Philadelphia,PA,19138,42,42101,Philadelphia County,40.059508,-75.163415,37980,"Philadelphia-Camden-Wilmington, PA-NJ-DE-MD",1,428,"Philadelphia-Reading-Camden, PA-NJ-DE-MD",N,N,4202,42203,42004,2017-2018,11,0.0,1,11
4200042,Inquiry Charter School,42,1301 Belmont Avenue,Philadelphia,PA,19104,42,42101,Philadelphia County,39.97476,-75.21243100000001,37980,"Philadelphia-Camden-Wilmington, PA-NJ-DE-MD",1,428,"Philadelphia-Reading-Camden, PA-NJ-DE-MD",N,N,4202,42190,42007,2017-2018,11,0.0,1,11
4200043,Eugenio Maria De Hostos CS,42,6301 N 2nd Street,Philadelphia,PA,19120,42,42101,Philadelphia County,40.046608,-75.123259,37980,"Philadelphia-Camden-Wilmington, PA-NJ-DE-MD",1,428,"Philadelphia-Reading-Camden, PA-NJ-DE-MD",N,N,4213,42203,42003,2017-2018,11,0.0,1,11
4200044,Laboratory CS,42,Administrative Office,Philadelphia,PA,19131,42,42101,Philadelphia County,39.988226,-75.243097,37980,"Philadelphia-Camden-Wilmington, PA-NJ-DE-MD",1,428,"Philadelphia-Reading-Camden, PA-NJ-DE-MD",N,N,4202,42192,42007,2017-2018,11,0.0,1,11
4200047,Wonderland CS,42,2112 Sandy Dr,State College,PA,16803,42,42027,Centre County,40.784634,-77.903149,44300,"State College, PA",1,524,"State College-DuBois, PA",N,N,4205,42171,42034,2017-2018,23,0.0,1,23
4200048,Crispus Attucks CS,42,605 S Duke St.,York,PA,17403,42,42133,York County,39.954857,-76.721548,49620,"York-Hanover, PA",1,276,"Harrisburg-York-Lebanon, PA",N,N,4204,42095,42028,2017-2018,13,0.0,1,13
4200049,Danville Ctr Adolescent Female,42,13 Kirkbride Drive,Danville,PA,17821,42,42093,Montour County,40.948012,-76.59817600000001,14100,"Bloomsburg-Berwick, PA",1,146,"Bloomsburg-Berwick-Sunbury, PA",N,N,4211,42107,42027,2017-2018,23,0.0,1,23
4200050,Collegium CS,42,535 James Hance Court,Exton,PA,19341,42,42029,Chester County,40.01991,-75.660071,37980,"Philadelphia-Camden-Wilmington, PA-NJ-DE-MD",1,428,"Philadelphia-Reading-Camden, PA-NJ-DE-MD",N,N,4206,42167,42019,2017-2018,21,0.0,1,21
4200051,MAST Community Charter School,42,1800 E Byberry Rd,Philadelphia,PA,19116,42,42101,Philadelphia County,40.113595,-75.006234,37980,"Philadelphia-Camden-Wilmington, PA-NJ-DE-MD",1,428,"Philadelphia-Reading-Camden, PA-NJ-DE-MD",N,N,4213,42170,42005,2017-2018,11,0.0,1,11
4200052,Christopher Columbus CS,42,916 Christian St,Philadelphia,PA,19147,42,42101,Philadelphia County,39.939034,-75.158472,37980,"Philadelphia-Camden-Wilmington, PA-NJ-DE-MD",1,428,"Philadelphia-Reading-Camden, PA-NJ-DE-MD",N,N,4201,42182,42001,2017-2018,11,0.0,1,11
4200053,Charter High School for Architecture and Design,42,105 S. 7th St,Philadelphia,PA,19106,42,42101,Philadelphia County,39.94885,-75.15199100000001,37980,"Philadelphia-Camden-Wilmington, PA-NJ-DE-MD",1,428,"Philadelphia-Reading-Camden, PA-NJ-DE-MD",N,N,4201,42175,42001,2017-2018,11,0.0,1,11
4200055,Universal Institute CS,42,801 S 15th St,Philadelphia,PA,19146,42,42101,Philadelphia County,39.94079,-75.167731,37980,"Philadelphia-Camden-Wilmington, PA-NJ-DE-MD",1,428,"Philadelphia-Reading-Camden, PA-NJ-DE-MD",N,N,4202,42186,42001,2017-2018,11,0.0,1,11
4200056,Math Civics and Sciences CS,42,447 N Broad St,Philadelphia,PA,19123,42,42101,Philadelphia County,39.961186000000005,-75.161247,37980,"Philadelphia-Camden-Wilmington, PA-NJ-DE-MD",1,428,"Philadelphia-Reading-Camden, PA-NJ-DE-MD",N,N,4201,42175,42001,2017-2018,11,0.0,1,11
4200058,Young Scholars CS,42,900 N Marshall St,Philadelphia,PA,19123,42,42101,Philadelphia County,39.9678,-75.148251,37980,"Philadelphia-Camden-Wilmington, PA-NJ-DE-MD",1,428,"Philadelphia-Reading-Camden, PA-NJ-DE-MD",N,N,4201,42181,42001,2017-2018,11,0.0,1,11
4200060,Freire CS,42,2027 Chestnut Street,Philadelphia,PA,19103,42,42101,Philadelphia County,39.952352000000005,-75.174493,37980,"Philadelphia-Camden-Wilmington, PA-NJ-DE-MD",1,428,"Philadelphia-Reading-Camden, PA-NJ-DE-MD",N,N,4202,42182,42001,2017-2018,11,0.0,1,11
4200061,Philadelphia Academy CS,42,11000 Roosevelt Blvd,Philadelphia,PA,19116,42,42101,Philadelphia County,40.10394,-75.00989700000001,37980,"Philadelphia-Camden-Wilmington, PA-NJ-DE-MD",1,428,"Philadelphia-Reading-Camden, PA-NJ-DE-MD",N,N,4213,42170,42005,2017-2018,11,0.0,1,11
4200062,Mastery CS - Hardy Williams,42,5400 Warrington Street,Philadelphia,PA,19143,42,42101,Philadelphia County,39.94171,-75.226543,37980,"Philadelphia-Camden-Wilmington, PA-NJ-DE-MD",1,428,"Philadelphia-Reading-Camden, PA-NJ-DE-MD",N,N,4202,42188,42008,2017-2018,11,0.0,1,11
4200063,Sugar Valley Rural CS,42,236 E Main St,Loganton,PA,17747,42,42035,Clinton County,41.034635,-77.297728,30820,"Lock Haven, PA",2,558,"Williamsport-Lock Haven, PA",N,N,4205,42076,42025,2017-2018,42,0.0,1,42
4200064,Spectrum CS,42,4369 Northern Pike,Monroeville,PA,15146,42,42003,Allegheny County,40.43396,-79.7522,38300,"Pittsburgh, PA",1,430,"Pittsburgh-New Castle-Weirton, PA-OH-WV",N,N,4218,42025,42045,2017-2018,21,0.0,1,21
4200065,Lincoln CS,42,559 W King St.,York,PA,17401,42,42133,York County,39.956393,-76.741427,49620,"York-Hanover, PA",1,276,"Harrisburg-York-Lebanon, PA",N,N,4204,42095,42028,2017-2018,13,0.0,1,13
4200067,Renaissance Academy CS,42,413 Fairview Street,Phoenixville,PA,19460,42,42029,Chester County,40.140697,-75.522057,37980,"Philadelphia-Camden-Wilmington, PA-NJ-DE-MD",1,428,"Philadelphia-Reading-Camden, PA-NJ-DE-MD",N,N,4206,42155,42019,2017-2018,21,0.0,1,21
4200068,Roberto Clemente CS,42,136 S 4th St,Allentown,PA,18102,42,42077,Lehigh County,40.601473,-75.46434500000001,10900,"Allentown-Bethlehem-Easton, PA-NJ",1,408,"New York-Newark, NY-NJ-CT-PA",N,N,4215,42022,42016,2017-2018,12,0.0,1,12
4200069,Bucks County Montessori CS,42,219 Tyburn Rd,Fairless Hills,PA,19030,42,42017,Bucks County,40.180398,-74.813177,37980,"Philadelphia-Camden-Wilmington, PA-NJ-DE-MD",1,428,"Philadelphia-Reading-Camden, PA-NJ-DE-MD",N,N,4208,42140,42010,2017-2018,21,0.0,1,21
4200070,Souderton CS Collaborative,42,110 E Broad St,Souderton,PA,18964,42,42091,Montgomery County,40.309618,-75.319973,37980,"Philadelphia-Camden-Wilmington, PA-NJ-DE-MD",1,428,"Philadelphia-Reading-Camden, PA-NJ-DE-MD",N,N,4208,42053,42012,2017-2018,21,0.0,1,21
4200071,Pennsylvania Cyber CS,42,652 Midland Ave,Midland,PA,15059,42,42007,Beaver County,40.63772,-80.454571,38300,"Pittsburgh, PA",1,430,"Pittsburgh-New Castle-Weirton, PA-OH-WV",N,N,4212,42014,42047,2017-2018,31,0.0,1,31
4200072,Wakisha CS,42,900 W Jefferson Street,Philadelphia,PA,19122,42,42101,Philadelphia County,39.973980000000005,-75.150783,37980,"Philadelphia-Camden-Wilmington, PA-NJ-DE-MD",1,428,"Philadelphia-Reading-Camden, PA-NJ-DE-MD",N,N,4201,42181,42003,2017-2018,11,0.0,1,11
4200073,Global Leadership Academy CS,42,4601 Girard Avenue,Philadelphia,PA,19131,42,42101,Philadelphia County,39.973227,-75.215574,37980,"Philadelphia-Camden-Wilmington, PA-NJ-DE-MD",1,428,"Philadelphia-Reading-Camden, PA-NJ-DE-MD",N,N,4202,42190,42007,2017-2018,11,0.0,1,11
4200074,Philadelphia Performing Arts CS,42,2600 S Broad St,Philadelphia,PA,19145,42,42101,Philadelphia County,39.917945,-75.171441,37980,"Philadelphia-Camden-Wilmington, PA-NJ-DE-MD",1,428,"Philadelphia-Reading-Camden, PA-NJ-DE-MD",N,N,4201,42185,42001,2017-2018,11,0.0,1,11
4200075,New Foundations CS,42,8001 Torresdale Ave,Philadelphia,PA,19136,42,42101,Philadelphia County,40.035128,-75.02421700000001,37980,"Philadelphia-Camden-Wilmington, PA-NJ-DE-MD",1,428,"Philadelphia-Reading-Camden, PA-NJ-DE-MD",N,N,4201,42173,42005,2017-2018,11,0.0,1,11
4200076,Esperanza Academy Charter School,42,301 W Hunting Park Ave,Philadelphia,PA,19140,42,42101,Philadelphia County,40.015064,-75.133174,37980,"Philadelphia-Camden-Wilmington, PA-NJ-DE-MD",1,428,"Philadelphia-Reading-Camden, PA-NJ-DE-MD",N,N,4201,42180,42002,2017-2018,11,0.0,1,11
4200077,Franklin Towne CHS,42,5301 Tacony St,Philadelphia,PA,19137,42,42101,Philadelphia County,40.007654,-75.064835,37980,"Philadelphia-Camden-Wilmington, PA-NJ-DE-MD",1,428,"Philadelphia-Reading-Camden, PA-NJ-DE-MD",N,N,4201,42177,42005,2017-2018,11,0.0,1,11
4200078,Delaware Valley CHS,42,5201 Old York Road,Philadelphia,PA,19141,42,42101,Philadelphia County,40.0321,-75.1456,37980,"Philadelphia-Camden-Wilmington, PA-NJ-DE-MD",1,428,"Philadelphia-Reading-Camden, PA-NJ-DE-MD",N,N,4202,42201,42003,2017-2018,11,0.0,1,11
4200079,Mariana Bracetti Academy CS,42,1840 Torresdale Ave,Philadelphia,PA,19124,42,42101,Philadelphia County,40.005872,-75.09511400000001,37980,"Philadelphia-Camden-Wilmington, PA-NJ-DE-MD",1,428,"Philadelphia-Reading-Camden, PA-NJ-DE-MD",N,N,4201,42177,42005,2017-2018,11,0.0,1,11
4200080,Walter D Palmer Leadership Learning Partners CS,42,910 North 6th Street,Philadelphia,PA,19123,42,42101,Philadelphia County,39.968321,-75.147485,37980,"Philadelphia-Camden-Wilmington, PA-NJ-DE-MD",1,428,"Philadelphia-Reading-Camden, PA-NJ-DE-MD",N,N,4201,42181,42001,2017-2018,11,0.0,1,11
4200084,Mastery CHS - Lenfest Campus,42,35 S. 4th Street,Philadelphia,PA,19106,42,42101,Philadelphia County,39.94955,-75.147164,37980,"Philadelphia-Camden-Wilmington, PA-NJ-DE-MD",1,428,"Philadelphia-Reading-Camden, PA-NJ-DE-MD",N,N,4201,42175,42001,2017-2018,11,0.0,1,11
4200085,People for People CS,42,800 N. Broad St,Philadelphia,PA,19130,42,42101,Philadelphia County,39.96812,-75.16044000000001,37980,"Philadelphia-Camden-Wilmington, PA-NJ-DE-MD",1,428,"Philadelphia-Reading-Camden, PA-NJ-DE-MD",N,N,4201,42195,42001,2017-2018,11,0.0,1,11
4200086,Richard Allen Preparatory CS,42,2601 S 58th St,Philadelphia,PA,19143,42,42101,Philadelphia County,39.928265,-75.218614,37980,"Philadelphia-Camden-Wilmington, PA-NJ-DE-MD",1,428,"Philadelphia-Reading-Camden, PA-NJ-DE-MD",N,N,4201,42191,42008,2017-2018,11,0.0,1,11
4200087,Independence CS,42,1600 Lombard Street,Philadelphia,PA,19146,42,42101,Philadelphia County,39.944972,-75.168903,37980,"Philadelphia-Camden-Wilmington, PA-NJ-DE-MD",1,428,"Philadelphia-Reading-Camden, PA-NJ-DE-MD",N,N,4202,42186,42001,2017-2018,11,0.0,1,11
4200088,Pennsylvania Virtual CS,42,630 Park Avenue,King of Prussia,PA,19406,42,42091,Montgomery County,40.093685,-75.409137,37980,"Philadelphia-Camden-Wilmington, PA-NJ-DE-MD",1,428,"Philadelphia-Reading-Camden, PA-NJ-DE-MD",N,N,4213,42149,42017,2017-2018,21,0.0,1,21
4200091,21st Century Cyber CS,42,126 Wallace Ave.,Downingtown,PA,19335,42,42029,Chester County,40.0108,-75.70437100000001,37980,"Philadelphia-Camden-Wilmington, PA-NJ-DE-MD",1,428,"Philadelphia-Reading-Camden, PA-NJ-DE-MD",N,N,4206,42074,42019,2017-2018,21,0.0,1,21
4200092,Russell Byers CS,42,1911 Arch St,Philadelphia,PA,19103,42,42101,Philadelphia County,39.963369,-75.171373,37980,"Philadelphia-Camden-Wilmington, PA-NJ-DE-MD",1,428,"Philadelphia-Reading-Camden, PA-NJ-DE-MD",N,N,4202,42182,42001,2017-2018,11,0.0,1,11
4200093,First Philadelphia Preparatory Charter School,42,4300 Tacony St,Philadelphia,PA,19124,42,42101,Philadelphia County,40.007325,-75.082168,37980,"Philadelphia-Camden-Wilmington, PA-NJ-DE-MD",1,428,"Philadelphia-Reading-Camden, PA-NJ-DE-MD",N,N,4213,42177,42002,2017-2018,11,0.0,1,11
4200094,City CHS,42,201 Stanwix Street,Pittsburgh,PA,15222,42,42003,Allegheny County,40.44008,-80.00509100000001,38300,"Pittsburgh, PA",1,430,"Pittsburgh-New Castle-Weirton, PA-OH-WV",N,N,4214,42019,42042,2017-2018,11,0.0,1,11
4200095,Central PA Digital Learning Foundation CS,42,721 N. Juniata St. Suite 3,Hollidaysburg,PA,16648,42,42013,Blair County,40.43117,-78.399741,11020,"Altoona, PA",1,N,N,N,N,4209,42080,42030,2017-2018,23,0.0,1,23
4200096,Fell CS,42,777 Main Street,Simpson,PA,18407,42,42069,Lackawanna County,41.59837,-75.48463,42540,"Scranton--Wilkes-Barre--Hazleton, PA",1,N,N,N,N,4210,42114,42022,2017-2018,21,0.0,1,21
4200098,Lehigh Valley Academy Regional CS,42,1560 Valley Center Parkway,Bethlehem,PA,18017,42,42095,Northampton County,40.654367,-75.409919,10900,"Allentown-Bethlehem-Easton, PA-NJ",1,408,"New York-Newark, NY-NJ-CT-PA",N,N,4215,42138,42040,2017-2018,21,0.0,1,21
4200099,Lehigh Valley Charter High School for the Arts,42,321 E. Third St,Bethlehem,PA,18015,42,42095,Northampton County,40.612210000000005,-75.374301,10900,"Allentown-Bethlehem-Easton, PA-NJ",1,408,"New York-Newark, NY-NJ-CT-PA",N,N,4215,42135,42018,2017-2018,13,0.0,1,13
4200100,Center for Student Learning CS at Pennsbury,42,345 Lakeside Drive,Levittown,PA,19054,42,42017,Bucks County,40.14859,-74.815211,37980,"Philadelphia-Camden-Wilmington, PA-NJ-DE-MD",1,428,"Philadelphia-Reading-Camden, PA-NJ-DE-MD",N,N,4208,42140,42010,2017-2018,21,0.0,1,21
4200101,Avon Grove CS,42,110 E State St,West Grove,PA,19390,42,42029,Chester County,39.8245,-75.8047,37980,"Philadelphia-Camden-Wilmington, PA-NJ-DE-MD",1,428,"Philadelphia-Reading-Camden, PA-NJ-DE-MD",N,N,4216,42013,42019,2017-2018,21,0.0,1,21
4200104,Green Woods CS,42,468 Domino Lane,Philadelphia,PA,19128,42,42101,Philadelphia County,40.04381,-75.235161,37980,"Philadelphia-Camden-Wilmington, PA-NJ-DE-MD",1,428,"Philadelphia-Reading-Camden, PA-NJ-DE-MD",N,N,4202,42194,42007,2017-2018,11,0.0,1,11
4200105,West Phila. Achievement CES,42,6701 Callowhill Street,Philadelphia,PA,19151,42,42101,Philadelphia County,39.97041,-75.25415100000001,37980,"Philadelphia-Camden-Wilmington, PA-NJ-DE-MD",1,428,"Philadelphia-Reading-Camden, PA-NJ-DE-MD",N,N,4201,42192,42007,2017-2018,11,0.0,1,11
4200106,Wissahickon CS,42,4700 G Wissahickon Ave,Philadelphia,PA,19144,42,42101,Philadelphia County,40.015912,-75.171262,37980,"Philadelphia-Camden-Wilmington, PA-NJ-DE-MD",1,428,"Philadelphia-Reading-Camden, PA-NJ-DE-MD",N,N,4202,42198,42007,2017-2018,11,0.0,1,11
4200107,Philadelphia Electrical & Tech CHS,42,1420-22 Chestnut St,Philadelphia,PA,19102,42,42101,Philadelphia County,39.950659,-75.165125,37980,"Philadelphia-Camden-Wilmington, PA-NJ-DE-MD",1,428,"Philadelphia-Reading-Camden, PA-NJ-DE-MD",N,N,4202,42182,42001,2017-2018,11,0.0,1,11
4200108,Belmont Charter School,42,4030 Brown St,Philadelphia,PA,19104,42,42101,Philadelphia County,39.967045,-75.204629,37980,"Philadelphia-Camden-Wilmington, PA-NJ-DE-MD",1,428,"Philadelphia-Reading-Camden, PA-NJ-DE-MD",N,N,4202,42190,42007,2017-2018,11,0.0,1,11
4200109,Pittsburgh-Mt Oliver IU 2,42,1305 Muriel St.,Pittsburgh,PA,15203,42,42003,Allegheny County,40.43029,-79.984821,38300,"Pittsburgh, PA",1,430,"Pittsburgh-New Castle-Weirton, PA-OH-WV",N,N,4214,42019,42043,2017-2018,11,-2.0,-2,N
4200110,Philadelphia IU 26,42,440 North Broad Street,Philadelphia,PA,19130,42,42101,Philadelphia County,39.9615,-75.1617,37980,"Philadelphia-Camden-Wilmington, PA-NJ-DE-MD",1,428,"Philadelphia-Reading-Camden, PA-NJ-DE-MD",N,N,4202,42182,42001,2017-2018,11,-2.0,-2,N
4200111,Propel CS-Homestead,42,129 E. Tenth Avenue,Homestead,PA,15120,42,42003,Allegheny County,40.4051,-79.91040000000001,38300,"Pittsburgh, PA",1,430,"Pittsburgh-New Castle-Weirton, PA-OH-WV",N,N,4214,42034,42043,2017-2018,21,0.0,1,21
4200114,New Day Charter School,42,256 South Fifth Street,Huntingdon,PA,16652,42,42061,Huntingdon County,40.48266,-78.01835100000001,26500,"Huntingdon, PA",2,N,N,N,N,4205,42081,42034,2017-2018,32,0.0,1,32
4200115,Perseus House CS of Excellence,42,1511 Peach Street,Erie,PA,16501,42,42049,Erie County,42.120270000000005,-80.080011,21500,"Erie, PA",1,240,"Erie-Meadville, PA",N,N,4203,42002,42049,2017-2018,13,0.0,1,13
4200118,Infinity CS,42,5405 Locust Lane,Harrisburg,PA,17109,42,42043,Dauphin County,40.292558,-76.797387,25420,"Harrisburg-Carlisle, PA",1,276,"Harrisburg-York-Lebanon, PA",N,N,4211,42105,42015,2017-2018,21,0.0,1,21
4200119,Commonwealth Charter Academy CS,42,One Innovation Way,Harrisburg,PA,17110,42,42043,Dauphin County,40.292337,-76.883256,25420,"Harrisburg-Carlisle, PA",1,276,"Harrisburg-York-Lebanon, PA",N,N,4204,42103,42015,2017-2018,13,0.0,1,13
4200121,Discovery Charter School,42,4700 Parkside Avenue,Philadelphia,PA,19131,42,42101,Philadelphia County,39.97696,-75.21399100000001,37980,"Philadelphia-Camden-Wilmington, PA-NJ-DE-MD",1,428,"Philadelphia-Reading-Camden, PA-NJ-DE-MD",N,N,4202,42190,42007,2017-2018,11,0.0,1,11
4200122,KIPP Philadelphia Charter School,42,2539 N. 16th Street,Philadelphia,PA,19132,42,42101,Philadelphia County,39.992034,-75.157974,37980,"Philadelphia-Camden-Wilmington, PA-NJ-DE-MD",1,428,"Philadelphia-Reading-Camden, PA-NJ-DE-MD",N,N,4202,42197,42003,2017-2018,11,0.0,1,11
4200123,Maritime Academy Charter School,42,2275 Bridge St,Philadelphia,PA,19137,42,42101,Philadelphia County,40.00907,-75.068781,37980,"Philadelphia-Camden-Wilmington, PA-NJ-DE-MD",1,428,"Philadelphia-Reading-Camden, PA-NJ-DE-MD",N,N,4201,42177,42005,2017-2018,11,0.0,1,11
4200124,Montessori Regional CS,42,2910 Sterrettania Road,Erie,PA,16506,42,42049,Erie County,42.084315,-80.140162,21500,"Erie, PA",1,240,"Erie-Meadville, PA",N,N,4203,42003,42049,2017-2018,22,0.0,1,22
4200125,Pennsylvania Distance Learning CS,42,2100 Corporate Drive,Wexford,PA,15090,42,42003,Allegheny County,40.6106,-80.088451,38300,"Pittsburgh, PA",1,430,"Pittsburgh-New Castle-Weirton, PA-OH-WV",N,N,4212,42028,42038,2017-2018,21,0.0,1,21
4200126,Bear Creek Community CS,42,30 Charter School Way,Bear Creek Township,PA,18702,42,42079,Luzerne County,41.187358,-75.777162,42540,"Scranton--Wilkes-Barre--Hazleton, PA",1,N,N,N,N,4211,42118,42014,2017-2018,41,0.0,1,41
4200127,Pennsylvania Leadership Charter School,42,1332 Enterprise Dr,West Chester,PA,19380,42,42029,Chester County,39.98925,-75.555601,37980,"Philadelphia-Camden-Wilmington, PA-NJ-DE-MD",1,428,"Philadelphia-Reading-Camden, PA-NJ-DE-MD",N,N,4206,42156,42009,2017-2018,21,0.0,1,21
4200128,Achievement House CS,42,600 Eagleview Boulevard,Exton,PA,19341,42,42029,Chester County,40.065618,-75.679316,37980,"Philadelphia-Camden-Wilmington, PA-NJ-DE-MD",1,428,"Philadelphia-Reading-Camden, PA-NJ-DE-MD",N,N,4206,42155,42044,2017-2018,21,0.0,1,21
4200129,Ad Prima CS,42,1922 N. 63rd Street,Philadelphia,PA,19151,42,42101,Philadelphia County,39.98432,-75.247671,37980,"Philadelphia-Camden-Wilmington, PA-NJ-DE-MD",1,428,"Philadelphia-Reading-Camden, PA-NJ-DE-MD",N,N,4201,42192,42007,2017-2018,11,0.0,1,11
4200130,Philadelphia Montessori CS,42,2227 Island Rd,Philadelphia,PA,19142,42,42101,Philadelphia County,39.916443,-75.245469,37980,"Philadelphia-Camden-Wilmington, PA-NJ-DE-MD",1,428,"Philadelphia-Reading-Camden, PA-NJ-DE-MD",N,N,4201,42191,42008,2017-2018,11,0.0,1,11
4200131,Khepera CS,42,926 West Sedgley Avenue,Philadelphia,PA,19132,42,42101,Philadelphia County,40.001462,-75.145199,37980,"Philadelphia-Camden-Wilmington, PA-NJ-DE-MD",1,428,"Philadelphia-Reading-Camden, PA-NJ-DE-MD",N,N,4202,42197,42003,2017-2018,11,0.0,1,11
4200133,Academy CS,42,900 Agnew Rd,Pittsburgh,PA,15227,42,42003,Allegheny County,40.400353,-79.966339,38300,"Pittsburgh, PA",1,430,"Pittsburgh-New Castle-Weirton, PA-OH-WV",N,N,4214,42034,42043,2017-2018,11,0.0,1,11
4200134,Propel CS-McKeesport,42,2412 Versailles Avenue,McKeesport,PA,15132,42,42003,Allegheny County,40.34552,-79.848201,38300,"Pittsburgh, PA",1,430,"Pittsburgh-New Castle-Weirton, PA-OH-WV",N,N,4214,42035,42045,2017-2018,21,0.0,1,21
4200135,Propel CS-East,42,1611 Monroeville Ave.,Turtle Creek,PA,15145,42,42003,Allegheny County,40.409368,-79.815376,38300,"Pittsburgh, PA",1,430,"Pittsburgh-New Castle-Weirton, PA-OH-WV",N,N,4214,42034,42045,2017-2018,21,0.0,1,21
4200136,Tidioute Community CS,42,241 Main St,Tidioute,PA,16351,42,42123,Warren County,41.683746,-79.402334,47620,"Warren, PA",2,N,N,N,N,4205,42065,42021,2017-2018,42,0.0,1,42
4200137,Young Scholars of Central PA CS,42,1530 Westerly Parkway,State College,PA,16801,42,42027,Centre County,40.776245,-77.87486,44300,"State College, PA",1,524,"State College-DuBois, PA",N,N,4205,42171,42034,2017-2018,23,0.0,1,23
4200139,Northwood Academy CS,42,4621 Castor Ave,Philadelphia,PA,19124,42,42101,Philadelphia County,40.020358,-75.094499,37980,"Philadelphia-Camden-Wilmington, PA-NJ-DE-MD",1,428,"Philadelphia-Reading-Camden, PA-NJ-DE-MD",N,N,4213,42177,42002,2017-2018,11,0.0,1,11
4200140,Agora Cyber CS,42,590 North Gulph Road,King of Prussia,PA,19406,42,42091,Montgomery County,40.093469,-75.412347,37980,"Philadelphia-Camden-Wilmington, PA-NJ-DE-MD",1,428,"Philadelphia-Reading-Camden, PA-NJ-DE-MD",N,N,4207,42149,42017,2017-2018,21,0.0,1,21
4200141,Folk Arts-Cultural Treasures CS,42,1023 Callowhill St,Philadelphia,PA,19123,42,42101,Philadelphia County,39.958956,-75.156114,37980,"Philadelphia-Camden-Wilmington, PA-NJ-DE-MD",1,428,"Philadelphia-Reading-Camden, PA-NJ-DE-MD",N,N,4201,42175,42001,2017-2018,11,0.0,1,11
4200142,Beaver Area Academic CS,42,Gypsy Glen Rd,Beaver,PA,15009,42,42007,Beaver County,40.695522,-80.318805,38300,"Pittsburgh, PA",1,430,"Pittsburgh-New Castle-Weirton, PA-OH-WV",N,N,4212,42015,42047,2017-2018,21,0.0,1,21
4200143,Lincoln Park Performing Arts CS,42,One Lincoln Park,Midland,PA,15059,42,42007,Beaver County,40.635576,-80.449554,38300,"Pittsburgh, PA",1,430,"Pittsburgh-New Castle-Weirton, PA-OH-WV",N,N,4212,42014,42047,2017-2018,31,0.0,1,31
4200144,Mastery CS-Thomas Campus,42,927 Johnston St,Philadelphia,PA,19148,42,42101,Philadelphia County,39.914671,-75.163587,37980,"Philadelphia-Camden-Wilmington, PA-NJ-DE-MD",1,428,"Philadelphia-Reading-Camden, PA-NJ-DE-MD",N,N,4201,42184,42001,2017-2018,11,0.0,1,11
4200145,Mastery CS-Shoemaker Campus,42,5301 Media Street,Philadelphia,PA,19131,42,42101,Philadelphia County,39.976091,-75.228551,37980,"Philadelphia-Camden-Wilmington, PA-NJ-DE-MD",1,428,"Philadelphia-Reading-Camden, PA-NJ-DE-MD",N,N,4202,42190,42007,2017-2018,11,0.0,1,11
4200749,Evergreen Community CS,42,905 East Grace Ave.,Cresco,PA,18326,42,42089,Monroe County,41.14892,-75.286034,20700,"East Stroudsburg, PA",1,408,"New York-Newark, NY-NJ-CT-PA",N,N,4210,42189,42022,2017-2018,41,0.0,1,41
4200750,Philadelphia AVTS,42,440 North Broad Street,Philadelphia,PA,19130,42,42101,Philadelphia County,39.9615,-75.1617,37980,"Philadelphia-Camden-Wilmington, PA-NJ-DE-MD",1,428,"Philadelphia-Reading-Camden, PA-NJ-DE-MD",N,N,4202,42182,42001,2017-2018,11,-2.0,-2,N
4200751,City of Erie Regional Career & Technical School,42,3325 Cherry Street,Erie,PA,16508,42,42049,Erie County,42.1014,-80.0831,21500,"Erie, PA",1,240,"Erie-Meadville, PA",N,N,4203,42002,42049,2017-2018,13,-2.0,-2,N
4200752,Propel CS-Montour,42,340 Bilmar Drive,Pittsburgh,PA,15205,42,42003,Allegheny County,40.45432,-80.106081,38300,"Pittsburgh, PA",1,430,"Pittsburgh-New Castle-Weirton, PA-OH-WV",N,N,4214,42045,42042,2017-2018,21,0.0,1,21
4200753,Widener Partnership CS,42,1450 Edgmont Avenue,Chester,PA,19013,42,42045,Delaware County,39.859158,-75.362475,37980,"Philadelphia-Camden-Wilmington, PA-NJ-DE-MD",1,428,"Philadelphia-Reading-Camden, PA-NJ-DE-MD",N,N,4201,42159,42009,2017-2018,21,0.0,1,21
4200754,Pittsburgh AVTS,42,515 N. Highland Avenue,Pittsburgh,PA,15206,42,42003,Allegheny County,40.46706,-79.922601,38300,"Pittsburgh, PA",1,430,"Pittsburgh-New Castle-Weirton, PA-OH-WV",N,N,4214,42024,42038,2017-2018,11,-2.0,-2,N
4200755,Millersville University of PA,42,N George St,Millersville,PA,17551,42,42071,Lancaster County,40.000283,-76.35737300000001,29540,"Lancaster, PA",1,N,N,N,N,4216,42100,42013,2017-2018,21,-2.0,-2,N
4200758,Southwest Leadership Academy CS,42,7101 Paschall Ave,Philadelphia,PA,19142,42,42101,Philadelphia County,39.918206000000005,-75.242582,37980,"Philadelphia-Camden-Wilmington, PA-NJ-DE-MD",1,428,"Philadelphia-Reading-Camden, PA-NJ-DE-MD",N,N,4201,42191,42008,2017-2018,11,0.0,1,11
4200759,Truebright Science Academy CS,42,407 E. Roosevelt Blvd.,Philadelphia,PA,19120,42,42101,Philadelphia County,40.02741,-75.117174,37980,"Philadelphia-Camden-Wilmington, PA-NJ-DE-MD",1,428,"Philadelphia-Reading-Camden, PA-NJ-DE-MD",N,N,4213,42179,42003,2017-2018,11,0.0,1,11
4200760,Boys Latin of Philadelphia CS,42,5501 Cedar Avenue,Philadelphia,PA,19143,42,42101,Philadelphia County,39.951772,-75.23340300000001,37980,"Philadelphia-Camden-Wilmington, PA-NJ-DE-MD",1,428,"Philadelphia-Reading-Camden, PA-NJ-DE-MD",N,N,4202,42188,42008,2017-2018,11,0.0,1,11
4200761,Mastery CS-Pickett Campus,42,5700 Wayne Avenue,Philadelphia,PA,19144,42,42101,Philadelphia County,40.032161,-75.180554,37980,"Philadelphia-Camden-Wilmington, PA-NJ-DE-MD",1,428,"Philadelphia-Reading-Camden, PA-NJ-DE-MD",N,N,4202,42201,42004,2017-2018,11,0.0,1,11
4200762,Keystone Academy Charter School,42,4521 Longshore Avenue,Philadelphia,PA,19135,42,42101,Philadelphia County,40.027655,-75.043608,37980,"Philadelphia-Camden-Wilmington, PA-NJ-DE-MD",1,428,"Philadelphia-Reading-Camden, PA-NJ-DE-MD",N,N,4201,42173,42005,2017-2018,11,0.0,1,11
4200810,Pan American Academy CS,42,2830 North American Street,Philadelphia,PA,19133,42,42101,Philadelphia County,39.99428,-75.136151,37980,"Philadelphia-Camden-Wilmington, PA-NJ-DE-MD",1,428,"Philadelphia-Reading-Camden, PA-NJ-DE-MD",N,N,4201,42197,42002,2017-2018,11,0.0,1,11
4200812,Environmental Charter School at Frick Park,42,829 Milton Street,Pittsburgh,PA,15218,42,42003,Allegheny County,40.43595,-79.896891,38300,"Pittsburgh, PA",1,430,"Pittsburgh-New Castle-Weirton, PA-OH-WV",N,N,4214,42023,42043,2017-2018,11,0.0,1,11
4200813,Antonia Pantoja Community Charter School,42,4101 North American Street,Philadelphia,PA,19140,42,42101,Philadelphia County,40.01216,-75.131051,37980,"Philadelphia-Camden-Wilmington, PA-NJ-DE-MD",1,428,"Philadelphia-Reading-Camden, PA-NJ-DE-MD",N,N,4201,42180,42002,2017-2018,11,0.0,1,11
4200814,Vida Charter School,42,Eisenhower Center,Gettysburg,PA,17325,42,42001,Adams County,39.838577,-77.226101,23900,"Gettysburg, PA",1,276,"Harrisburg-York-Lebanon, PA",N,N,4204,42091,42033,2017-2018,23,0.0,1,23
4200815,KIPP West Philadelphia Preparatory Charter School,42,5900 Baltimore Ave.,Philadelphia,PA,19143,42,42101,Philadelphia County,39.94453,-75.24184100000001,37980,"Philadelphia-Camden-Wilmington, PA-NJ-DE-MD",1,428,"Philadelphia-Reading-Camden, PA-NJ-DE-MD",N,N,4201,42191,42008,2017-2018,11,0.0,1,11
4200816,Sankofa Freedom Academy Charter School,42,2501 Kensington Avenue,Philadelphia,PA,19125,42,42101,Philadelphia County,39.986995,-75.128659,37980,"Philadelphia-Camden-Wilmington, PA-NJ-DE-MD",1,428,"Philadelphia-Reading-Camden, PA-NJ-DE-MD",N,N,4201,42175,42002,2017-2018,11,0.0,1,11
4200817,Franklin Towne Charter Elementary School,42,4259 Richmond Street,Philadelphia,PA,19137,42,42101,Philadelphia County,39.99552,-75.074721,37980,"Philadelphia-Camden-Wilmington, PA-NJ-DE-MD",1,428,"Philadelphia-Reading-Camden, PA-NJ-DE-MD",N,N,4201,42177,42005,2017-2018,11,0.0,1,11
4200818,Seven Generations Charter School,42,154 E. Minor Street,Emmaus,PA,18049,42,42077,Lehigh County,40.53637,-75.485021,10900,"Allentown-Bethlehem-Easton, PA-NJ",1,408,"New York-Newark, NY-NJ-CT-PA",N,N,4215,42131,42018,2017-2018,21,0.0,1,21
4200819,Lincoln Leadership Academy Charter School,42,1414 E. Cedar St.,Allentown,PA,18109,42,42077,Lehigh County,40.62235,-75.434301,10900,"Allentown-Bethlehem-Easton, PA-NJ",1,408,"New York-Newark, NY-NJ-CT-PA",N,N,4215,42132,42016,2017-2018,12,0.0,1,12
4200821,Tacony Academy Charter School,42,1330 Rhawn Street,Philadelphia,PA,19111,42,42101,Philadelphia County,40.06702,-75.065921,37980,"Philadelphia-Camden-Wilmington, PA-NJ-DE-MD",1,428,"Philadelphia-Reading-Camden, PA-NJ-DE-MD",N,N,4213,42174,42005,2017-2018,11,0.0,1,11
4200822,Eastern University Academy Charter School,42,3300 Henry Ave. Ste 2,Philadelphia,PA,19129,42,42101,Philadelphia County,40.01323,-75.18402,37980,"Philadelphia-Camden-Wilmington, PA-NJ-DE-MD",1,428,"Philadelphia-Reading-Camden, PA-NJ-DE-MD",N,N,4202,42194,42007,2017-2018,11,0.0,1,11
4200823,ARISE Academy Charter High School,42,2116 E. Haines Street,Philadelphia,PA,19138,42,42101,Philadelphia County,40.056270000000005,-75.156941,37980,"Philadelphia-Camden-Wilmington, PA-NJ-DE-MD",1,428,"Philadelphia-Reading-Camden, PA-NJ-DE-MD",N,N,4202,42203,42004,2017-2018,11,0.0,1,11
4200824,Central Valley SD,42,160 Baker Road Extension,Monaca,PA,15061,42,42007,Beaver County,40.66073,-80.304131,38300,"Pittsburgh, PA",1,430,"Pittsburgh-New Castle-Weirton, PA-OH-WV",N,N,4212,42015,42047,2017-2018,21,0.0,1,21
4200825,Helen Thackston Charter School,42,625 East Philadelphia St.,York,PA,17403,42,42133,York County,39.968732,-76.716299,49620,"York-Hanover, PA",1,276,"Harrisburg-York-Lebanon, PA",N,N,4204,42095,42028,2017-2018,13,0.0,1,13
4200827,Universal Daroff Charter School,42,5630 Vine St,Philadelphia,PA,19139,42,42101,Philadelphia County,39.965724,-75.23316,37980,"Philadelphia-Camden-Wilmington, PA-NJ-DE-MD",1,428,"Philadelphia-Reading-Camden, PA-NJ-DE-MD",N,N,4202,42190,42007,2017-2018,11,0.0,1,11
4200828,Mastery CS-Harrity Campus,42,5601 Christian Street,Philadelphia,PA,19143,42,42101,Philadelphia County,39.948462,-75.235591,37980,"Philadelphia-Camden-Wilmington, PA-NJ-DE-MD",1,428,"Philadelphia-Reading-Camden, PA-NJ-DE-MD",N,N,4202,42188,42008,2017-2018,11,0.0,1,11
4200829,Mastery CS-Smedley Campus,42,1790 Bridge Street,Philadelphia,PA,19124,42,42101,Philadelphia County,40.019835,-75.073542,37980,"Philadelphia-Camden-Wilmington, PA-NJ-DE-MD",1,428,"Philadelphia-Reading-Camden, PA-NJ-DE-MD",N,N,4201,42202,42002,2017-2018,11,0.0,1,11
4200830,Frederick Douglass Mastery Charter School,42,2118 W. Norris St.,Philadelphia,PA,19121,42,42101,Philadelphia County,39.98462,-75.169261,37980,"Philadelphia-Camden-Wilmington, PA-NJ-DE-MD",1,428,"Philadelphia-Reading-Camden, PA-NJ-DE-MD",N,N,4202,42195,42003,2017-2018,11,0.0,1,11
4200831,Mastery CS-Mann Campus,42,5376 W. Berks Street,Philadelphia,PA,19131,42,42101,Philadelphia County,39.985999,-75.23131000000001,37980,"Philadelphia-Camden-Wilmington, PA-NJ-DE-MD",1,428,"Philadelphia-Reading-Camden, PA-NJ-DE-MD",N,N,4202,42192,42007,2017-2018,11,0.0,1,11
4200832,Lehigh Valley Dual Language Charter School,42,675 E Broad St,Bethlehem,PA,18018,42,42095,Northampton County,40.622454000000005,-75.361945,10900,"Allentown-Bethlehem-Easton, PA-NJ",1,408,"New York-Newark, NY-NJ-CT-PA",N,N,4215,42135,42018,2017-2018,13,0.0,1,13
4200833,Propel CS-Braddock Hills,42,1500 Yost Blvd,Pittsburgh,PA,15221,42,42003,Allegheny County,40.41399,-79.851381,38300,"Pittsburgh, PA",1,430,"Pittsburgh-New Castle-Weirton, PA-OH-WV",N,N,4214,42034,42043,2017-2018,21,0.0,1,21
4200834,Universal Bluford Charter School,42,5801 Media St,Philadelphia,PA,19131,42,42101,Philadelphia County,39.974764,-75.236581,37980,"Philadelphia-Camden-Wilmington, PA-NJ-DE-MD",1,428,"Philadelphia-Reading-Camden, PA-NJ-DE-MD",N,N,4202,42192,42007,2017-2018,11,0.0,1,11
4200835,ASPIRA Bilingual Cyber Charter School,42,4322 N 5th Street 2nd Floor,Philadelphia,PA,19140,42,42101,Philadelphia County,40.017140000000005,-75.134891,37980,"Philadelphia-Camden-Wilmington, PA-NJ-DE-MD",1,428,"Philadelphia-Reading-Camden, PA-NJ-DE-MD",N,N,4202,42197,42003,2017-2018,11,0.0,1,11
4200836,Gettysburg Montessori Charter School,42,888 Coleman Road,Gettysburg,PA,17325,42,42001,Adams County,39.87904,-77.150361,23900,"Gettysburg, PA",1,276,"Harrisburg-York-Lebanon, PA",N,N,4204,42091,42033,2017-2018,41,0.0,1,41
4200839,John B Stetson Charter School,42,3400 B Street,Philadelphia,PA,19134,42,42101,Philadelphia County,40.00125,-75.124931,37980,"Philadelphia-Camden-Wilmington, PA-NJ-DE-MD",1,428,"Philadelphia-Reading-Camden, PA-NJ-DE-MD",N,N,4201,42180,42002,2017-2018,11,0.0,1,11
4200840,Mastery CS-Clymer Elementary,42,1201 W Rush Street,Philadelphia,PA,19133,42,42101,Philadelphia County,39.995615,-75.15044900000001,37980,"Philadelphia-Camden-Wilmington, PA-NJ-DE-MD",1,428,"Philadelphia-Reading-Camden, PA-NJ-DE-MD",N,N,4202,42181,42003,2017-2018,11,0.0,1,11
4200841,Gillingham Charter School,42,915 Howard Avenue,Pottsville,PA,17901,42,42107,Schuylkill County,40.680269,-76.2009,39060,"Pottsville, PA",2,N,N,N,N,4217,42125,42029,2017-2018,32,0.0,1,32
4200843,Olney Charter High School,42,100 W Duncannon St,Philadelphia,PA,19120,42,42101,Philadelphia County,40.028619,-75.123923,37980,"Philadelphia-Camden-Wilmington, PA-NJ-DE-MD",1,428,"Philadelphia-Reading-Camden, PA-NJ-DE-MD",N,N,4213,42179,42003,2017-2018,11,0.0,1,11
4200844,Stone Valley Community CS,42,13006 Greenwood Road,Huntingdon,PA,16652,42,42061,Huntingdon County,40.63762,-77.83720100000001,26500,"Huntingdon, PA",2,N,N,N,N,4205,42081,42034,2017-2018,42,0.0,1,42
4200845,Young Scholars of Western Pennsylvania CS,42,600 Newport Drive,Baldwin Township,PA,15234,42,42003,Allegheny County,40.37635,-80.01879100000001,38300,"Pittsburgh, PA",1,430,"Pittsburgh-New Castle-Weirton, PA-OH-WV",N,N,4214,42042,42042,2017-2018,21,0.0,1,21
4200846,York Academy Regional Charter School,42,32 West North Street,York,PA,17401,42,42133,York County,39.965694,-76.731128,49620,"York-Hanover, PA",1,276,"Harrisburg-York-Lebanon, PA",N,N,4204,42095,42028,2017-2018,13,0.0,1,13
4200847,Urban Pathways K-5 College Charter School,42,925 Penn Avenue,Pittsburgh,PA,15222,42,42003,Allegheny County,40.44422,-79.997271,38300,"Pittsburgh, PA",1,430,"Pittsburgh-New Castle-Weirton, PA-OH-WV",N,N,4214,42019,42042,2017-2018,11,0.0,1,11
4200848,I-LEAD Charter School,42,401 Penn Street,Reading,PA,19601,42,42011,Berks County,40.33573,-75.929261,39740,"Reading, PA",1,428,"Philadelphia-Reading-Camden, PA-NJ-DE-MD",N,N,4216,42127,42011,2017-2018,13,0.0,1,13
4200849,Propel CS-Northside,42,1805 Buena Vista Street,Pittsburgh,PA,15212,42,42003,Allegheny County,40.460079,-80.015907,38300,"Pittsburgh, PA",1,430,"Pittsburgh-New Castle-Weirton, PA-OH-WV",N,N,4214,42019,42042,2017-2018,11,0.0,1,11
4200850,Lindley Academy CS at Birney,42,900 West Lindley Avenue,Philadelphia,PA,19141,42,42101,Philadelphia County,40.029519,-75.13815,37980,"Philadelphia-Camden-Wilmington, PA-NJ-DE-MD",1,428,"Philadelphia-Reading-Camden, PA-NJ-DE-MD",N,N,4202,42201,42003,2017-2018,11,0.0,1,11
4200851,Mastery CS-Gratz Campus,42,1798 West Hunting Park Avenue,Philadelphia,PA,19140,42,42101,Philadelphia County,40.014647,-75.15654,37980,"Philadelphia-Camden-Wilmington, PA-NJ-DE-MD",1,428,"Philadelphia-Reading-Camden, PA-NJ-DE-MD",N,N,4202,42198,42003,2017-2018,11,0.0,1,11
4200852,HOPE for Hyndman CS,42,130 School Drive,Hyndman,PA,15545,42,42009,Bedford County,39.824385,-78.72837100000001,N,N,0,N,N,N,N,4209,42069,42035,2017-2018,42,0.0,1,42
4200853,Penn Hills Charter School of Entrepreneurship,42,2501 Main Street,Pittsburgh,PA,15235,42,42003,Allegheny County,40.47235,-79.791341,38300,"Pittsburgh, PA",1,430,"Pittsburgh-New Castle-Weirton, PA-OH-WV",N,N,4214,42032,42043,2017-2018,21,0.0,1,21
4200854,Erie Rise Leadership Academy Charter School,42,2501 Plum Street,Erie,PA,16502,42,42049,Erie County,42.105973,-80.09243500000001,21500,"Erie, PA",1,240,"Erie-Meadville, PA",N,N,4203,42002,42049,2017-2018,13,0.0,1,13
4200855,Universal Vare Charter School,42,2100 South 24th Street,Philadelphia,PA,19145,42,42101,Philadelphia County,39.926210000000005,-75.18677100000001,37980,"Philadelphia-Camden-Wilmington, PA-NJ-DE-MD",1,428,"Philadelphia-Reading-Camden, PA-NJ-DE-MD",N,N,4202,42186,42008,2017-2018,11,0.0,1,11
4200856,Universal Audenried Charter School,42,3301 Tasker Street,Philadelphia,PA,19145,42,42101,Philadelphia County,39.934495,-75.19936200000001,37980,"Philadelphia-Camden-Wilmington, PA-NJ-DE-MD",1,428,"Philadelphia-Reading-Camden, PA-NJ-DE-MD",N,N,4202,42186,42008,2017-2018,11,0.0,1,11
4200857,Chester CS for the Arts,42,1500 Highland Avenue,Chester,PA,19013,42,42045,Delaware County,39.838805,-75.399428,37980,"Philadelphia-Camden-Wilmington, PA-NJ-DE-MD",1,428,"Philadelphia-Reading-Camden, PA-NJ-DE-MD",N,N,4201,42159,42009,2017-2018,21,0.0,1,21
4200858,Esperanza Cyber CS,42,4261 N. 5th Street,Philadelphia,PA,19140,42,42101,Philadelphia County,40.015917,-75.134964,37980,"Philadelphia-Camden-Wilmington, PA-NJ-DE-MD",1,428,"Philadelphia-Reading-Camden, PA-NJ-DE-MD",N,N,4201,42180,42002,2017-2018,11,0.0,1,11
4200859,Propel CS-Pitcairn,42,435 Agatha Street,Pittsburgh,PA,15140,42,42003,Allegheny County,40.404160000000005,-79.779301,38300,"Pittsburgh, PA",1,430,"Pittsburgh-New Castle-Weirton, PA-OH-WV",N,N,4214,42025,42045,2017-2018,21,0.0,1,21
4200860,Arts Academy CS,42,1610 East Emmaus Avenue,Allentown,PA,18103,42,42077,Lehigh County,40.58967,-75.417951,10900,"Allentown-Bethlehem-Easton, PA-NJ",1,408,"New York-Newark, NY-NJ-CT-PA",N,N,4215,42133,42018,2017-2018,21,0.0,1,21
4200861,Baden Academy CS,42,1016 State Street,Baden,PA,15005,42,42007,Beaver County,40.649708,-80.23245800000001,38300,"Pittsburgh, PA",1,430,"Pittsburgh-New Castle-Weirton, PA-OH-WV",N,N,4212,42016,42047,2017-2018,21,0.0,1,21
4200862,Mastery CS - Cleveland Elementary,42,3701 N. 19th Street,Philadelphia,PA,19140,42,42101,Philadelphia County,40.011009,-75.158721,37980,"Philadelphia-Camden-Wilmington, PA-NJ-DE-MD",1,428,"Philadelphia-Reading-Camden, PA-NJ-DE-MD",N,N,4202,42198,42003,2017-2018,11,0.0,1,11
4200863,The Philadelphia CS for Arts and Sciences at HR Edmunds,42,1197 Haworth Street,Philadelphia,PA,19124,42,42101,Philadelphia County,40.025114,-75.086986,37980,"Philadelphia-Camden-Wilmington, PA-NJ-DE-MD",1,428,"Philadelphia-Reading-Camden, PA-NJ-DE-MD",N,N,4213,42177,42002,2017-2018,11,0.0,1,11
4200865,Education Plus Academy Cyber CS,42,487 Devon Park Drive,Wayne,PA,19087,42,42029,Chester County,40.076006,-75.413691,37980,"Philadelphia-Camden-Wilmington, PA-NJ-DE-MD",1,428,"Philadelphia-Reading-Camden, PA-NJ-DE-MD",N,N,4206,42157,42019,2017-2018,21,0.0,1,21
4200866,Universal Creighton Charter School,42,5401 Tabor Avenue,Philadelphia,PA,19120,42,42101,Philadelphia County,40.03449,-75.10493100000001,37980,"Philadelphia-Camden-Wilmington, PA-NJ-DE-MD",1,428,"Philadelphia-Reading-Camden, PA-NJ-DE-MD",N,N,4213,42203,42002,2017-2018,11,0.0,1,11
4200867,Howard Gardner Multiple Intelligence CS,42,1615 East Elm Street,Scranton,PA,18505,42,42069,Lackawanna County,41.383199000000005,-75.648122,42540,"Scranton--Wilkes-Barre--Hazleton, PA",1,N,N,N,N,4217,42113,42022,2017-2018,41,0.0,1,41
4200868,ACT Academy Cyber CS,42,2111 Eastburn Avenue,Philadelphia,PA,19138,42,42101,Philadelphia County,40.05634,-75.156231,37980,"Philadelphia-Camden-Wilmington, PA-NJ-DE-MD",1,428,"Philadelphia-Reading-Camden, PA-NJ-DE-MD",N,N,4202,42203,42004,2017-2018,11,0.0,1,11
4200870,Memphis Street Academy CS @ JP Jones,42,2950 Memphis Street,Philadelphia,PA,19134,42,42101,Philadelphia County,39.98625,-75.112914,37980,"Philadelphia-Camden-Wilmington, PA-NJ-DE-MD",1,428,"Philadelphia-Reading-Camden, PA-NJ-DE-MD",N,N,4201,42177,42001,2017-2018,11,0.0,1,11
4200872,Universal Alcorn CS,42,3200 Dickinson Street,Philadelphia,PA,19146,42,42101,Philadelphia County,39.93544,-75.197388,37980,"Philadelphia-Camden-Wilmington, PA-NJ-DE-MD",1,428,"Philadelphia-Reading-Camden, PA-NJ-DE-MD",N,N,4202,42186,42008,2017-2018,11,0.0,1,11
4200873,Premier Arts and Science Charter School,42,500 North 17th Street,Harrisburg,PA,17103,42,42043,Dauphin County,40.271443000000005,-76.866788,25420,"Harrisburg-Carlisle, PA",1,276,"Harrisburg-York-Lebanon, PA",N,N,4204,42103,42015,2017-2018,13,0.0,1,13
4200874,Mastery CS - Francis D. Pastorius Elementary,42,5650 Sprague Street,Philadelphia,PA,19138,42,42101,Philadelphia County,40.048053,-75.16090700000001,37980,"Philadelphia-Camden-Wilmington, PA-NJ-DE-MD",1,428,"Philadelphia-Reading-Camden, PA-NJ-DE-MD",N,N,4202,42198,42004,2017-2018,11,0.0,1,11
4200875,Circle of Seasons Charter School,42,8380 Mohr Lane,Fogelsville,PA,18051,42,42077,Lehigh County,40.59643,-75.64791100000001,10900,"Allentown-Bethlehem-Easton, PA-NJ",1,408,"New York-Newark, NY-NJ-CT-PA",N,N,4215,42187,42016,2017-2018,21,0.0,1,21
4200876,Capital Area School for the Arts Charter School,42,150 Strawberry Square,Harrisburg,PA,17101,42,42043,Dauphin County,40.26262,-76.88128400000001,25420,"Harrisburg-Carlisle, PA",1,276,"Harrisburg-York-Lebanon, PA",N,N,4204,42103,42015,2017-2018,13,0.0,1,13
4200877,Young Scholars Kenderton CS,42,1500 W. Ontario Street,Philadelphia,PA,19140,42,42101,Philadelphia County,40.004878,-75.153999,37980,"Philadelphia-Camden-Wilmington, PA-NJ-DE-MD",1,428,"Philadelphia-Reading-Camden, PA-NJ-DE-MD",N,N,4202,42198,42003,2017-2018,11,0.0,1,11
4200878,Mifflin County Academy of Science and Technology,42,700 Pitt Street,Lewistown,PA,17044,42,42087,Mifflin County,40.60531,-77.553961,30380,"Lewistown, PA",2,N,N,N,N,4210,42082,42034,2017-2018,32,0.0,1,32
4200879,Executive Education Academy Charter School,42,555 Union Boulevard Suite #24,Allentown,PA,18109,42,42077,Lehigh County,40.62361,-75.453181,10900,"Allentown-Bethlehem-Easton, PA-NJ",1,408,"New York-Newark, NY-NJ-CT-PA",N,N,4215,42132,42016,2017-2018,12,0.0,1,12
4200880,Propel CS - Hazelwood,42,5401 Glenwood Ave,Pittsburgh,PA,15208,42,42003,Allegheny County,40.404016,-79.938357,38300,"Pittsburgh, PA",1,430,"Pittsburgh-New Castle-Weirton, PA-OH-WV",N,N,4214,42019,42043,2017-2018,11,0.0,1,11
4200881,Roberto Clemente Elementary Charter School,42,501-509 West Cedar Street,Allentown,PA,18102,42,42077,Lehigh County,40.615445,-75.474023,10900,"Allentown-Bethlehem-Easton, PA-NJ",1,408,"New York-Newark, NY-NJ-CT-PA",N,N,4215,42132,42016,2017-2018,12,0.0,1,12
4200882,Hill House Passport Academy Charter School,42,510 Heldman Street,Pittsburgh,PA,15219,42,42003,Allegheny County,40.44277,-79.98257100000001,38300,"Pittsburgh, PA",1,430,"Pittsburgh-New Castle-Weirton, PA-OH-WV",N,N,4214,42019,42042,2017-2018,11,0.0,1,11
4200883,Arts Academy Elementary Charter School,42,601 W Union Street,Allentown,PA,18101,42,42077,Lehigh County,40.60014,-75.469081,10900,"Allentown-Bethlehem-Easton, PA-NJ",1,408,"New York-Newark, NY-NJ-CT-PA",N,N,4215,42022,42016,2017-2018,12,0.0,1,12
4200884,Young Scholars of McKeesport Charter School,42,413 Shaw Avenue,McKeesport,PA,15132,42,42003,Allegheny County,40.349912,-79.862044,38300,"Pittsburgh, PA",1,430,"Pittsburgh-New Castle-Weirton, PA-OH-WV",N,N,4214,42035,42045,2017-2018,21,0.0,1,21
4200885,Vision Academy Charter School,42,45 E Baltimore Avenue,Lansdowne,PA,19050,42,42045,Delaware County,39.93889,-75.270331,37980,"Philadelphia-Camden-Wilmington, PA-NJ-DE-MD",1,428,"Philadelphia-Reading-Camden, PA-NJ-DE-MD",N,N,4201,42164,42008,2017-2018,21,0.0,1,21
4200886,KIPP DuBois Charter School,42,5070 Parkside Avenue,Philadelphia,PA,19131,42,42101,Philadelphia County,39.98039,-75.220871,37980,"Philadelphia-Camden-Wilmington, PA-NJ-DE-MD",1,428,"Philadelphia-Reading-Camden, PA-NJ-DE-MD",N,N,4202,42190,42007,2017-2018,11,0.0,1,11
4200887,Reach Cyber CS,42,750 East Park Drive,Harrisburg,PA,17111,42,42043,Dauphin County,40.271,-76.813771,25420,"Harrisburg-Carlisle, PA",1,276,"Harrisburg-York-Lebanon, PA",N,N,4211,42105,42015,2017-2018,21,0.0,1,21
4200888,KIPP West Philadelphia CS,42,2412 S 62nd Street,Philadelphia,PA,19142,42,42101,Philadelphia County,39.925792,-75.227898,37980,"Philadelphia-Camden-Wilmington, PA-NJ-DE-MD",1,428,"Philadelphia-Reading-Camden, PA-NJ-DE-MD",N,N,4201,42185,42008,2017-2018,11,0.0,1,11
4200889,Mastery CS John Wister Elementary,42,67 E Bringhurst Street,Philadelphia,PA,19144,42,42101,Philadelphia County,40.033462,-75.16706500000001,37980,"Philadelphia-Camden-Wilmington, PA-NJ-DE-MD",1,428,"Philadelphia-Reading-Camden, PA-NJ-DE-MD",N,N,4202,42198,42004,2017-2018,11,0.0,1,11
4200890,Provident CS,42,1400 Troy Hill Road,Pittsburgh,PA,15212,42,42003,Allegheny County,40.460749,-79.985489,38300,"Pittsburgh, PA",1,430,"Pittsburgh-New Castle-Weirton, PA-OH-WV",N,N,4214,42020,42042,2017-2018,11,0.0,1,11
4200891,MaST Community CS II,42,6238 Rising Sun Avenue,Philadelphia,PA,19111,42,42101,Philadelphia County,40.048267,-75.097222,37980,"Philadelphia-Camden-Wilmington, PA-NJ-DE-MD",1,428,"Philadelphia-Reading-Camden, PA-NJ-DE-MD",N,N,4213,42202,42002,2017-2018,11,0.0,1,11
4200892,Global Leadership Academy CS Southwest at Huey,42,5200 Pine Street,Philadelphia,PA,19143,42,42101,Philadelphia County,39.95332,-75.226851,37980,"Philadelphia-Camden-Wilmington, PA-NJ-DE-MD",1,428,"Philadelphia-Reading-Camden, PA-NJ-DE-MD",N,N,4202,42190,42008,2017-2018,11,0.0,1,11
4200893,Independence CS West,42,5600 Chester Avenue,Philadelphia,PA,19143,42,42101,Philadelphia County,39.937650000000005,-75.225551,37980,"Philadelphia-Camden-Wilmington, PA-NJ-DE-MD",1,428,"Philadelphia-Reading-Camden, PA-NJ-DE-MD",N,N,4202,42191,42008,2017-2018,11,0.0,1,11
4200894,Innovative Arts Academy CS,42,330 Howertown Rd.,Catasauqua,PA,18032,42,42077,Lehigh County,40.65353,-75.469881,10900,"Allentown-Bethlehem-Easton, PA-NJ",1,408,"New York-Newark, NY-NJ-CT-PA",N,N,4215,42133,42018,2017-2018,21,0.0,1,21
4200895,TECH Freire CS,42,2221 North Broad Street,Philadelphia,PA,19132,42,42101,Philadelphia County,39.98693,-75.155553,37980,"Philadelphia-Camden-Wilmington, PA-NJ-DE-MD",1,428,"Philadelphia-Reading-Camden, PA-NJ-DE-MD",N,N,4202,42181,42003,2017-2018,11,0.0,1,11
4200896,Westinghouse Arts Academy CS,42,320 Marguerite Avenue,Wilmerding,PA,15148,42,42003,Allegheny County,40.391472,-79.80843800000001,38300,"Pittsburgh, PA",1,430,"Pittsburgh-New Castle-Weirton, PA-OH-WV",N,N,4214,42025,42045,2017-2018,21,0.0,1,21
4200897,Easton Arts Academy Elementary CS,42,30 North Fourth Street,Easton,PA,18042,42,42095,Northampton County,40.692032000000005,-75.21149,10900,"Allentown-Bethlehem-Easton, PA-NJ",1,408,"New York-Newark, NY-NJ-CT-PA",N,N,4217,42136,42018,2017-2018,21,0.0,1,21
4200898,Insight PA Cyber CS,42,350 Eagleview Blvd,Exton,PA,19341,42,42029,Chester County,40.056811,-75.670963,37980,"Philadelphia-Camden-Wilmington, PA-NJ-DE-MD",1,428,"Philadelphia-Reading-Camden, PA-NJ-DE-MD",N,N,4206,42155,42044,2017-2018,21,0.0,1,21
4202010,Abington Heights SD,42,200 E Grove St,Clarks Summit,PA,18411,42,42069,Lackawanna County,41.494182,-75.698688,42540,"Scranton--Wilkes-Barre--Hazleton, PA",1,N,N,N,N,4210,42114,42022,2017-2018,41,28.91,2,"21, 41"
4202040,Abington SD,42,970 Highland Ave,Abington,PA,19001,42,42091,Montgomery County,40.11356,-75.130011,37980,"Philadelphia-Camden-Wilmington, PA-NJ-DE-MD",1,428,"Philadelphia-Reading-Camden, PA-NJ-DE-MD",N,N,4213,42153,42004,2017-2018,21,0.0,1,21
4202100,Albert Gallatin Area SD,42,2625 Morgantown Rd,Uniontown,PA,15401,42,42051,Fayette County,39.8301,-79.77120000000001,38300,"Pittsburgh, PA",1,430,"Pittsburgh-New Castle-Weirton, PA-OH-WV",N,N,4209,42051,42032,2017-2018,41,35.66,4,"23, 31, 41, 42"
4202130,Aliquippa SD,42,800 21st Street,Aliquippa,PA,15001,42,42007,Beaver County,40.60858,-80.278321,38300,"Pittsburgh, PA",1,430,"Pittsburgh-New Castle-Weirton, PA-OH-WV",N,N,4212,42016,42046,2017-2018,21,0.0,1,21
4202190,Allegheny Valley SD,42,300 Pearl Ave,Cheswick,PA,15024,42,42003,Allegheny County,40.545397,-79.81696600000001,38300,"Pittsburgh, PA",1,430,"Pittsburgh-New Castle-Weirton, PA-OH-WV",N,N,4214,42033,42038,2017-2018,21,0.0,1,21
4202280,Allentown City SD,42,31 S Penn Street,Allentown,PA,18105,42,42077,Lehigh County,40.6026,-75.46640000000001,10900,"Allentown-Bethlehem-Easton, PA-NJ",1,408,"New York-Newark, NY-NJ-CT-PA",N,N,4215,42022,42016,2017-2018,12,0.0,1,12
4202310,Allegheny-Clarion Valley SD,42,776 Route 58,Foxburg,PA,16036,42,42031,Clarion County,41.14657,-79.67551,N,N,0,N,N,N,N,4205,42063,42021,2017-2018,43,0.0,1,43
4202340,Altoona Area SD,42,1415 6th Ave,Altoona,PA,16602,42,42013,Blair County,40.510027,-78.3982,11020,"Altoona, PA",1,N,N,N,N,4209,42079,42030,2017-2018,13,31.78,3,"13, 23, 41"
4202400,Wissahickon SD,42,601 Knight Rd,Ambler,PA,19002,42,42091,Montgomery County,40.167,-75.23270000000001,37980,"Philadelphia-Camden-Wilmington, PA-NJ-DE-MD",1,428,"Philadelphia-Reading-Camden, PA-NJ-DE-MD",N,N,4213,42061,42012,2017-2018,21,0.0,1,21
4202440,Ambridge Area SD,42,901 Duss Avenue,Ambridge,PA,15003,42,42007,Beaver County,40.591285,-80.225233,38300,"Pittsburgh, PA",1,430,"Pittsburgh-New Castle-Weirton, PA-OH-WV",N,N,4212,42016,42047,2017-2018,21,37.15,2,"21, 41"
4202480,Antietam SD,42,100 Antietam Rd Stony Ck Mills,Reading,PA,19606,42,42011,Berks County,40.347942,-75.867382,39740,"Reading, PA",1,428,"Philadelphia-Reading-Camden, PA-NJ-DE-MD",N,N,4206,42126,42011,2017-2018,21,0.0,1,21
4202490,Annville-Cleona SD,42,520 S White Oak St,Annville,PA,17003,42,42075,Lebanon County,40.321931,-76.50957600000001,30140,"Lebanon, PA",1,276,"Harrisburg-York-Lebanon, PA",N,N,4215,42101,42048,2017-2018,23,49.58,2,"23, 41"
4202550,Apollo-Ridge SD,42,1825 State Route 56,Spring Church,PA,15686,42,42005,Armstrong County,40.608518,-79.474638,38300,"Pittsburgh, PA",1,430,"Pittsburgh-New Castle-Weirton, PA-OH-WV",N,N,4203,42060,42041,2017-2018,41,0.0,1,41
4202590,Armstrong SD,42,181 Heritage Park Drive,Kittanning,PA,16201,42,42005,Armstrong County,40.831717000000005,-79.557641,38300,"Pittsburgh, PA",1,430,"Pittsburgh-New Castle-Weirton, PA-OH-WV",N,N,4203,42060,42041,2017-2018,41,28.16,2,"41, 42"
4202600,Lenape Tech,42,2215 Chaplin Avenue,Ford City,PA,16226,42,42005,Armstrong County,40.767646,-79.521067,38300,"Pittsburgh, PA",1,430,"Pittsburgh-New Castle-Weirton, PA-OH-WV",N,N,4203,42060,42041,2017-2018,41,0.0,1,41
4202670,Athens Area SD,42,401 W. Frederick Street,Athens,PA,18810,42,42015,Bradford County,41.971070000000005,-76.52698000000001,42380,"Sayre, PA",2,N,N,N,N,4210,42110,42023,2017-2018,32,17.51,2,"32, 42"
4202700,Austin Area SD,42,138 Costello Avenue,Austin,PA,16720,42,42105,Potter County,41.62586,-78.089661,N,N,0,N,N,N,N,4205,42067,42025,2017-2018,42,0.0,1,42
4202760,Avella Area SD,42,1000 Avella Rd,Avella,PA,15312,42,42125,Washington County,40.273484,-80.41819000000001,38300,"Pittsburgh, PA",1,430,"Pittsburgh-New Castle-Weirton, PA-OH-WV",N,N,4218,42015,42046,2017-2018,42,0.0,1,42
4202790,Avon Grove SD,42,375 S Jennersville Road,West Grove,PA,19390,42,42029,Chester County,39.79998,-75.883081,37980,"Philadelphia-Camden-Wilmington, PA-NJ-DE-MD",1,428,"Philadelphia-Reading-Camden, PA-NJ-DE-MD",N,N,4207,42013,42019,2017-2018,21,0.0,1,21
4202820,Avonworth SD,42,258 Josephs Lane,Pittsburgh,PA,15237,42,42003,Allegheny County,40.53111,-80.078181,38300,"Pittsburgh, PA",1,430,"Pittsburgh-New Castle-Weirton, PA-OH-WV",N,N,4212,42044,42037,2017-2018,21,0.0,1,21
4202850,Pine-Richland SD,42,702 Warrendale Rd,Gibsonia,PA,15044,42,42003,Allegheny County,40.660977,-80.01439500000001,38300,"Pittsburgh, PA",1,430,"Pittsburgh-New Castle-Weirton, PA-OH-WV",N,N,4212,42028,42038,2017-2018,21,32.04,2,"21, 41"
4202900,Chester County Technical College High School,42,455 Boot Road,Downingtown,PA,19335,42,42029,Chester County,40.00531,-75.679491,37980,"Philadelphia-Camden-Wilmington, PA-NJ-DE-MD",1,428,"Philadelphia-Reading-Camden, PA-NJ-DE-MD",N,N,4206,42074,42019,2017-2018,21,0.0,1,21
4202910,Bald Eagle Area SD,42,751 S Eagle Valley Rd,Wingate,PA,16823,42,42027,Centre County,40.93553,-77.810981,44300,"State College, PA",1,524,"State College-DuBois, PA",N,N,4205,42076,42034,2017-2018,41,12.87,2,"41, 42"
4202970,Baldwin-Whitehall SD,42,4900 Curry Rd,Pittsburgh,PA,15236,42,42003,Allegheny County,40.352902,-79.993824,38300,"Pittsburgh, PA",1,430,"Pittsburgh-New Castle-Weirton, PA-OH-WV",N,N,4218,42038,42037,2017-2018,21,0.0,1,21
4203000,Bangor Area SD,42,123 Five Points Richmond Rd,Bangor,PA,18013,42,42095,Northampton County,40.887539,-75.15249800000001,10900,"Allentown-Bethlehem-Easton, PA-NJ",1,408,"New York-Newark, NY-NJ-CT-PA",N,N,4217,42137,42040,2017-2018,41,18.53,2,"21, 41"
4203120,Beaver Area SD,42,1300 Fifth Street,Beaver,PA,15009,42,42007,Beaver County,40.69477,-80.316671,38300,"Pittsburgh, PA",1,430,"Pittsburgh-New Castle-Weirton, PA-OH-WV",N,N,4212,42015,42047,2017-2018,21,0.0,1,21
4203180,Bedford Area SD,42,330 E John St,Bedford,PA,15522,42,42009,Bedford County,40.015724,-78.49871300000001,N,N,0,N,N,N,N,4209,42078,42035,2017-2018,32,0.0,1,32
4203210,Belle Vernon Area SD,42,270 Crest Avenue,Belle Vernon,PA,15012,42,42129,Westmoreland County,40.179416,-79.812732,38300,"Pittsburgh, PA",1,430,"Pittsburgh-New Castle-Weirton, PA-OH-WV",N,N,4218,42058,42032,2017-2018,23,0.0,1,23
4203240,Bellefonte Area SD,42,318 N Allegheny St,Bellefonte,PA,16823,42,42027,Centre County,40.915600000000005,-77.7792,44300,"State College, PA",1,524,"State College-DuBois, PA",N,N,4205,42171,42034,2017-2018,31,30.6,4,"23, 31, 41, 42"
4203300,Bellwood-Antis SD,42,300 Martin Street,Bellwood,PA,16617,42,42013,Blair County,40.59508,-78.329972,11020,"Altoona, PA",1,N,N,N,N,4209,42080,42030,2017-2018,23,0.0,1,23
4203330,Bensalem Township SD,42,3000 Donallen Dr,Bensalem,PA,19020,42,42017,Bucks County,40.14147,-74.927411,37980,"Philadelphia-Camden-Wilmington, PA-NJ-DE-MD",1,428,"Philadelphia-Reading-Camden, PA-NJ-DE-MD",N,N,4208,42018,42006,2017-2018,21,0.0,1,21
4203360,Bentworth SD,42,150 Bearcat Drive,Bentleyville,PA,15314,42,42125,Washington County,40.124194,-80.02060300000001,38300,"Pittsburgh, PA",1,430,"Pittsburgh-New Castle-Weirton, PA-OH-WV",N,N,4209,42049,42046,2017-2018,41,0.0,1,41
4203390,Benton Area SD,42,600 Green Acres Rd,Benton,PA,17814,42,42037,Columbia County,41.200242,-76.378583,14100,"Bloomsburg-Berwick, PA",1,146,"Bloomsburg-Berwick-Sunbury, PA",N,N,4211,42109,42027,2017-2018,42,0.0,1,42
4203420,Berlin Brothersvalley SD,42,1025 Main St,Berlin,PA,15530,42,42111,Somerset County,39.9211,-78.9473,43740,"Somerset, PA",2,306,"Johnstown-Somerset, PA",N,N,4209,42069,42032,2017-2018,42,0.0,1,42
4203450,Bermudian Springs SD,42,7335 Carlisle Pike,York Springs,PA,17372,42,42001,Adams County,39.980721,-77.082899,23900,"Gettysburg, PA",1,276,"Harrisburg-York-Lebanon, PA",N,N,4204,42193,42033,2017-2018,41,0.0,1,41
4203480,Berwick Area SD,42,500 Line St,Berwick,PA,18603,42,42079,Luzerne County,41.063174,-76.223476,42540,"Scranton--Wilkes-Barre--Hazleton, PA",1,N,N,N,N,4211,42116,42027,2017-2018,23,45.49,2,"13, 23"
4203510,Bethel Park SD,42,301 Church Rd,Bethel Park,PA,15102,42,42003,Allegheny County,40.337340000000005,-80.045501,38300,"Pittsburgh, PA",1,430,"Pittsburgh-New Castle-Weirton, PA-OH-WV",N,N,4218,42040,42037,2017-2018,21,0.0,1,21
4203570,Bethlehem Area SD,42,1516 Sycamore St,Bethlehem,PA,18017,42,42095,Northampton County,40.6329,-75.3608,10900,"Allentown-Bethlehem-Easton, PA-NJ",1,408,"New York-Newark, NY-NJ-CT-PA",N,N,4215,42135,42018,2017-2018,13,31.08,2,"13, 21"
4203600,Bethlehem-Center SD,42,194 Crawford Rd,Fredericktown,PA,15333,42,42125,Washington County,40.019196,-80.02564100000001,38300,"Pittsburgh, PA",1,430,"Pittsburgh-New Castle-Weirton, PA-OH-WV",N,N,4218,42049,42046,2017-2018,41,0.0,1,41
4203630,Big Beaver Falls Area SD,42,1503 8th Avenue,Beaver Falls,PA,15010,42,42007,Beaver County,40.75612,-80.320843,38300,"Pittsburgh, PA",1,430,"Pittsburgh-New Castle-Weirton, PA-OH-WV",N,N,4212,42010,42047,2017-2018,21,18.54,2,"21, 41"
4203660,Big Spring SD,42,45 Mount Rock Rd,Newville,PA,17241,42,42041,Cumberland County,40.17596,-77.382931,25420,"Harrisburg-Carlisle, PA",1,276,"Harrisburg-York-Lebanon, PA",N,N,4211,42199,42030,2017-2018,42,0.0,1,42
4203688,Blackhawk SD,42,500 Blackhawk Rd,Beaver Falls,PA,15010,42,42007,Beaver County,40.765089,-80.40233500000001,38300,"Pittsburgh, PA",1,430,"Pittsburgh-New Castle-Weirton, PA-OH-WV",N,N,4212,42014,42047,2017-2018,41,36.31,2,"21, 41"
4203690,Blacklick Valley SD,42,555 Birch St,Nanty Glo,PA,15943,42,42021,Cambria County,40.478190000000005,-78.835965,27780,"Johnstown, PA",1,306,"Johnstown-Somerset, PA",N,N,4212,42073,42035,2017-2018,31,0.0,1,31
4203750,Blairsville-Saltsburg SD,42,102 School Lane,Blairsville,PA,15717,42,42063,Indiana County,40.44849,-79.219042,26860,"Indiana, PA",2,430,"Pittsburgh-New Castle-Weirton, PA-OH-WV",N,N,4209,42062,42041,2017-2018,41,37.22,2,"41, 42"
4203840,Bloomsburg Area SD,42,728 E 5th St,Bloomsburg,PA,17815,42,42037,Columbia County,41.0048,-76.4432,14100,"Bloomsburg-Berwick, PA",1,146,"Bloomsburg-Berwick-Sunbury, PA",N,N,4211,42109,42027,2017-2018,13,19.07,2,"13, 41"
4203870,Blue Mountain SD,42,685 Red Dale Rd,Orwigsburg,PA,17961,42,42107,Schuylkill County,40.656532,-76.086315,39060,"Pottsville, PA",2,N,N,N,N,4217,42124,42029,2017-2018,31,51.38,3,"31, 32, 41"
4203900,Blue Ridge SD,42,5150 School Road,New Milford,PA,18834,42,42115,Susquehanna County,41.898787,-75.736823,N,N,0,N,N,N,N,4210,42111,42020,2017-2018,41,0.0,1,41
4203960,Boyertown Area SD,42,911 Montgomery Ave,Boyertown,PA,19512,42,42011,Berks County,40.3383,-75.62610000000001,39740,"Reading, PA",1,428,"Philadelphia-Reading-Camden, PA-NJ-DE-MD",N,N,4206,42130,42024,2017-2018,22,36.64,2,"22, 41"
4204020,Bradford Area SD,42,150 Lorana Ave,Bradford,PA,16701,42,42083,McKean County,41.967209,-78.619836,14620,"Bradford, PA",2,N,N,N,N,4205,42067,42025,2017-2018,33,0.0,1,33
4204050,Brandywine Heights Area SD,42,200 W Weis St,Topton,PA,19562,42,42011,Berks County,40.497022,-75.70271100000001,39740,"Reading, PA",1,428,"Philadelphia-Reading-Camden, PA-NJ-DE-MD",N,N,4215,42134,42011,2017-2018,21,0.0,1,21
4204080,Brownsville Area SD,42,5 Falcon Drive,Brownsville,PA,15417,42,42051,Fayette County,40.008661,-79.895768,38300,"Pittsburgh, PA",1,430,"Pittsburgh-New Castle-Weirton, PA-OH-WV",N,N,4209,42050,42032,2017-2018,41,45.94,2,"23, 41"
4204090,Bryn Athyn SD,42,2835 Buck Rd,Bryn Athyn,PA,19009,42,42091,Montgomery County,40.130376,-75.059647,37980,"Philadelphia-Camden-Wilmington, PA-NJ-DE-MD",1,428,"Philadelphia-Reading-Camden, PA-NJ-DE-MD",N,N,4213,42152,42012,2017-2018,21,-2.0,-2,N
4204140,Brentwood Borough SD,42,3601 Brownsville Rd,Pittsburgh,PA,15227,42,42003,Allegheny County,40.374452,-79.97422300000001,38300,"Pittsburgh, PA",1,430,"Pittsburgh-New Castle-Weirton, PA-OH-WV",N,N,4214,42036,42045,2017-2018,21,0.0,1,21
4204200,Bristol Borough SD,42,1776 Farragut Avenue,Bristol,PA,19007,42,42017,Bucks County,40.10678,-74.842421,37980,"Philadelphia-Camden-Wilmington, PA-NJ-DE-MD",1,428,"Philadelphia-Reading-Camden, PA-NJ-DE-MD",N,N,4208,42140,42006,2017-2018,21,0.0,1,21
4204230,Bristol Township SD,42,6401 Mill Creek Rd,Levittown,PA,19057,42,42017,Bucks County,40.13741,-74.856041,37980,"Philadelphia-Camden-Wilmington, PA-NJ-DE-MD",1,428,"Philadelphia-Reading-Camden, PA-NJ-DE-MD",N,N,4208,42141,42006,2017-2018,21,0.0,1,21
4204260,Brockway Area SD,42,40 North St,Brockway,PA,15824,42,42065,Jefferson County,41.25136,-78.80466700000001,N,N,0,N,N,N,N,4205,42066,42025,2017-2018,33,44.58,2,"33, 41"
4204320,Brookville Area SD,42,104 Jenks Street,Brookville,PA,15825,42,42065,Jefferson County,41.174007,-79.089284,N,N,0,N,N,N,N,4205,42066,42025,2017-2018,33,15.42,2,"33, 41"
4204500,Burgettstown Area SD,42,100 Bavington Rd,Burgettstown,PA,15021,42,42125,Washington County,40.395596000000005,-80.38681100000001,38300,"Pittsburgh, PA",1,430,"Pittsburgh-New Castle-Weirton, PA-OH-WV",N,N,4218,42046,42046,2017-2018,41,0.0,1,41
4204530,Burrell SD,42,1021 Puckety Church Rd,Lower Burrell,PA,15068,42,42129,Westmoreland County,40.5847,-79.6978,38300,"Pittsburgh, PA",1,430,"Pittsburgh-New Castle-Weirton, PA-OH-WV",N,N,4212,42054,42045,2017-2018,21,0.0,1,21
4204590,Butler Area SD,42,110 Campus Lane,Butler,PA,16001,42,42019,Butler County,40.86665,-79.920631,38300,"Pittsburgh, PA",1,430,"Pittsburgh-New Castle-Weirton, PA-OH-WV",N,N,4203,42011,42021,2017-2018,31,7.98,2,"31, 41"
4204710,California Area SD,42,11 Trojan Way Suite 100,Coal Center,PA,15423,42,42125,Washington County,40.045357,-79.926514,38300,"Pittsburgh, PA",1,430,"Pittsburgh-New Castle-Weirton, PA-OH-WV",N,N,4209,42049,42046,2017-2018,41,0.0,1,41
4204740,Cambria Heights SD,42,426 Glendale Lake Rd,Patton,PA,16668,42,42021,Cambria County,40.63427,-78.630651,27780,"Johnstown, PA",1,306,"Johnstown-Somerset, PA",N,N,4209,42072,42035,2017-2018,41,0.0,1,41
4204830,Cameron County SD,42,601 Woodland Ave,Emporium,PA,15834,42,42023,Cameron County,41.515054,-78.249153,N,N,0,N,N,N,N,4205,42067,42025,2017-2018,33,0.0,1,33
4204860,Camp Hill SD,42,2627 Chestnut St,Camp Hill,PA,17011,42,42041,Cumberland County,40.238800000000005,-76.9277,25420,"Harrisburg-Carlisle, PA",1,276,"Harrisburg-York-Lebanon, PA",N,N,4204,42087,42031,2017-2018,21,0.0,1,21
4204890,Canon-McMillan SD,42,1 N Jefferson Ave,Canonsburg,PA,15317,42,42125,Washington County,40.2565,-80.1875,38300,"Pittsburgh, PA",1,430,"Pittsburgh-New Castle-Weirton, PA-OH-WV",N,N,4218,42048,42046,2017-2018,21,18.38,2,"21, 41"
4204920,Canton Area SD,42,509 E Main St,Canton,PA,17724,42,42015,Bradford County,41.657534,-76.843457,42380,"Sayre, PA",2,N,N,N,N,4210,42068,42023,2017-2018,42,0.0,1,42
4204980,Carbondale Area SD,42,101 Brooklyn St,Carbondale,PA,18407,42,42069,Lackawanna County,41.568092,-75.514824,42540,"Scranton--Wilkes-Barre--Hazleton, PA",1,N,N,N,N,4217,42114,42022,2017-2018,21,0.0,1,21
4205010,Carlisle Area SD,42,623 W. Penn St.,Carlisle,PA,17013,42,42041,Cumberland County,40.207493,-77.20695500000001,25420,"Harrisburg-Carlisle, PA",1,276,"Harrisburg-York-Lebanon, PA",N,N,4211,42199,42031,2017-2018,13,17.99,4,"13, 21, 31, 41"
4205040,Carlynton SD,42,435 Kings Hwy,Carnegie,PA,15106,42,42003,Allegheny County,40.424593,-80.09728100000001,38300,"Pittsburgh, PA",1,430,"Pittsburgh-New Castle-Weirton, PA-OH-WV",N,N,4218,42045,42037,2017-2018,21,0.0,1,21
4205070,Carmichaels Area SD,42,225 N Vine St,Carmichaels,PA,15320,42,42059,Greene County,39.897591,-79.980117,N,N,0,N,N,N,N,4209,42050,42046,2017-2018,41,0.0,1,41
4205160,Catasauqua Area SD,42,201 N 14th St,Catasauqua,PA,18032,42,42077,Lehigh County,40.65706,-75.455731,10900,"Allentown-Bethlehem-Easton, PA-NJ",1,408,"New York-Newark, NY-NJ-CT-PA",N,N,4215,42133,42018,2017-2018,21,0.0,1,21
4205190,Centennial SD,42,48 Swan Way,Warminster,PA,18974,42,42017,Bucks County,40.201384,-75.078672,37980,"Philadelphia-Camden-Wilmington, PA-NJ-DE-MD",1,428,"Philadelphia-Reading-Camden, PA-NJ-DE-MD",N,N,4208,42029,42012,2017-2018,21,0.0,1,21
4205310,Central Bucks SD,42,20 Welden Dr,Doylestown,PA,18901,42,42017,Bucks County,40.3342,-75.1434,37980,"Philadelphia-Camden-Wilmington, PA-NJ-DE-MD",1,428,"Philadelphia-Reading-Camden, PA-NJ-DE-MD",N,N,4208,42143,42010,2017-2018,21,26.92,2,"21, 41"
4205340,Central Cambria SD,42,208 Schoolhouse Rd,Ebensburg,PA,15931,42,42021,Cambria County,40.491264,-78.741169,27780,"Johnstown, PA",1,306,"Johnstown-Somerset, PA",N,N,4212,42072,42035,2017-2018,41,38.43,2,"31, 41"
4205370,Central Columbia SD,42,4777 Old Berwick Rd,Bloomsburg,PA,17815,42,42037,Columbia County,41.021005,-76.365855,14100,"Bloomsburg-Berwick, PA",1,146,"Bloomsburg-Berwick-Sunbury, PA",N,N,4211,42109,42027,2017-2018,23,0.0,1,23
4205400,Central Dauphin SD,42,600 Rutherford Rd,Harrisburg,PA,17109,42,42043,Dauphin County,40.2839,-76.8018,25420,"Harrisburg-Carlisle, PA",1,276,"Harrisburg-York-Lebanon, PA",N,N,4211,42105,42015,2017-2018,21,2.69,2,"21, 41"
4205430,Central Greene SD,42,250 S Cumberland St,Waynesburg,PA,15370,42,42059,Greene County,39.893654,-80.183879,N,N,0,N,N,N,N,4218,42050,42046,2017-2018,32,0.0,1,32
4205460,Crestwood SD,42,281 S Mountain Blvd,Mountain Top,PA,18707,42,42079,Luzerne County,41.13917,-75.90180000000001,42540,"Scranton--Wilkes-Barre--Hazleton, PA",1,N,N,N,N,4211,42119,42020,2017-2018,41,22.53,2,"21, 41"
4205490,Central York SD,42,775 Marion Rd,York,PA,17406,42,42133,York County,39.997015000000005,-76.707614,49620,"York-Hanover, PA",1,276,"Harrisburg-York-Lebanon, PA",N,N,4204,42047,42048,2017-2018,22,0.0,1,22
4205550,Chambersburg Area SD,42,435 Stanley Ave,Chambersburg,PA,17201,42,42055,Franklin County,39.925245,-77.655804,16540,"Chambersburg-Waynesboro, PA",1,548,"Washington-Baltimore-Arlington, DC-MD-VA-WV-PA",N,N,4209,42089,42033,2017-2018,13,41.21,4,"13, 23, 41, 42"
4205640,Charleroi SD,42,125 Fecsen Drive,Charleroi,PA,15022,42,42125,Washington County,40.155488,-79.918413,38300,"Pittsburgh, PA",1,430,"Pittsburgh-New Castle-Weirton, PA-OH-WV",N,N,4209,42049,42046,2017-2018,41,0.0,1,41
4205700,Chartiers Valley SD,42,2030 Swallow Hill Rd,Pittsburgh,PA,15220,42,42003,Allegheny County,40.398346,-80.078959,38300,"Pittsburgh, PA",1,430,"Pittsburgh-New Castle-Weirton, PA-OH-WV",N,N,4218,42045,42042,2017-2018,21,0.0,1,21
4205730,Chartiers-Houston SD,42,2020 W Pike St,Houston,PA,15342,42,42125,Washington County,40.231905000000005,-80.215518,38300,"Pittsburgh, PA",1,430,"Pittsburgh-New Castle-Weirton, PA-OH-WV",N,N,4218,42048,42046,2017-2018,21,0.0,1,21
4205760,Cheltenham SD,42,2000 Ashbourne Rd,Elkins Park,PA,19027,42,42091,Montgomery County,40.0767,-75.14450000000001,37980,"Philadelphia-Camden-Wilmington, PA-NJ-DE-MD",1,428,"Philadelphia-Reading-Camden, PA-NJ-DE-MD",N,N,4213,42154,42004,2017-2018,21,0.0,1,21
4205860,Chester-Upland SD,42,Attn: Administration Suite,Chester,PA,19013,42,42045,Delaware County,39.850715,-75.367298,37980,"Philadelphia-Camden-Wilmington, PA-NJ-DE-MD",1,428,"Philadelphia-Reading-Camden, PA-NJ-DE-MD",N,N,4201,42159,42009,2017-2018,21,0.0,1,21
4205880,Chestnut Ridge SD,42,3281 Valley Road,Fishertown,PA,15539,42,42009,Bedford County,40.134048,-78.58609700000001,N,N,0,N,N,N,N,4209,42078,42035,2017-2018,42,0.0,1,42
4205910,Chichester SD,42,401 Cherry Tree Rd,Aston,PA,19014,42,42045,Delaware County,39.850301,-75.437662,37980,"Philadelphia-Camden-Wilmington, PA-NJ-DE-MD",1,428,"Philadelphia-Reading-Camden, PA-NJ-DE-MD",N,N,4207,42159,42009,2017-2018,21,0.0,1,21
4206030,Clairton City SD,42,502 Mitchell Ave,Clairton,PA,15025,42,42003,Allegheny County,40.2913,-79.88640000000001,38300,"Pittsburgh, PA",1,430,"Pittsburgh-New Castle-Weirton, PA-OH-WV",N,N,4214,42035,42045,2017-2018,21,0.0,1,21
4206060,Clarion Area SD,42,221 Liberty St,Clarion,PA,16214,42,42031,Clarion County,41.217698,-79.389475,N,N,0,N,N,N,N,4205,42063,42021,2017-2018,33,0.0,1,33
4206090,Clarion-Limestone Area SD,42,4091 C-L School Road,Strattanville,PA,16258,42,42031,Clarion County,41.184069,-79.275115,N,N,0,N,N,N,N,4205,42063,42021,2017-2018,41,0.0,1,41
4206120,Claysburg-Kimmel SD,42,531 Bedford St,Claysburg,PA,16625,42,42013,Blair County,40.284906,-78.45231700000001,11020,"Altoona, PA",1,N,N,N,N,4209,42080,42030,2017-2018,41,49.56,2,"31, 41"
4206150,Clearfield Area SD,42,2831 Washington Avenue,Clearfield,PA,16830,42,42033,Clearfield County,40.99282,-78.48274500000001,20180,"DuBois, PA",2,524,"State College-DuBois, PA",N,N,4205,42073,42035,2017-2018,41,47.32,2,"32, 41"
4206240,Coatesville Area SD,42,3030 CG Zinn Rd,Thorndale,PA,19372,42,42029,Chester County,39.994607,-75.763395,37980,"Philadelphia-Camden-Wilmington, PA-NJ-DE-MD",1,428,"Philadelphia-Reading-Camden, PA-NJ-DE-MD",N,N,4207,42074,42044,2017-2018,21,24.55,2,"21, 41"
4206270,Cocalico SD,42,800 4th Street,Denver,PA,17517,42,42071,Lancaster County,40.2241,-76.1541,29540,"Lancaster, PA",1,N,N,N,N,4216,42037,42036,2017-2018,21,0.0,1,21
4206360,Columbia Borough SD,42,200 N Fifth St,Columbia,PA,17512,42,42071,Lancaster County,40.0364,-76.50240000000001,29540,"Lancaster, PA",1,N,N,N,N,4216,42098,42036,2017-2018,21,0.0,1,21
4206365,Columbia-Montour AVTS,42,5050 Sweppenheiser Drive,Bloomsburg,PA,17815,42,42037,Columbia County,41.028597000000005,-76.362182,14100,"Bloomsburg-Berwick, PA",1,146,"Bloomsburg-Berwick-Sunbury, PA",N,N,4211,42109,42027,2017-2018,23,0.0,1,23
4206390,Commodore Perry SD,42,3002 Perry Hwy,Hadley,PA,16130,42,42085,Mercer County,41.42729,-80.20926,49660,"Youngstown-Warren-Boardman, OH-PA",1,566,"Youngstown-Warren, OH-PA",N,N,4203,42008,42050,2017-2018,42,0.0,1,42
4206420,Conemaugh Township Area SD,42,300 West Campus Avenue,Davidsville,PA,15928,42,42111,Somerset County,40.228228,-78.939588,43740,"Somerset, PA",2,306,"Johnstown-Somerset, PA",N,N,4212,42059,42032,2017-2018,41,44.51,2,"23, 41"
4206430,Conemaugh Valley SD,42,1340 William Penn Avenue,Johnstown,PA,15906,42,42021,Cambria County,40.35842,-78.887981,27780,"Johnstown, PA",1,306,"Johnstown-Somerset, PA",N,N,4212,42072,42035,2017-2018,41,0.0,1,41
4206480,Conestoga Valley SD,42,2110 Horseshoe Rd,Lancaster,PA,17601,42,42071,Lancaster County,40.050292,-76.220838,29540,"Lancaster, PA",1,N,N,N,N,4216,42043,42013,2017-2018,21,0.0,1,21
4206550,Conewago Valley SD,42,130 Berlin Rd,New Oxford,PA,17350,42,42001,Adams County,39.870246,-77.053966,23900,"Gettysburg, PA",1,276,"Harrisburg-York-Lebanon, PA",N,N,4204,42193,42033,2017-2018,23,0.0,1,23
4206590,Conneaut SD,42,219 W School Dr,Linesville,PA,16424,42,42039,Crawford County,41.65521,-80.417011,32740,"Meadville, PA",2,240,"Erie-Meadville, PA",N,N,4203,42017,42050,2017-2018,42,35.19,3,"32, 41, 42"
4206660,Connellsville Area SD,42,732 Rockridge Rd.,Connellsville,PA,15425,42,42051,Fayette County,40.02242,-79.56616100000001,38300,"Pittsburgh, PA",1,430,"Pittsburgh-New Castle-Weirton, PA-OH-WV",N,N,4209,42052,42032,2017-2018,23,48.8,3,"23, 41, 42"
4206780,Conrad Weiser Area SD,42,44 Big Spring Rd,Robesonia,PA,19551,42,42011,Berks County,40.348366,-76.119169,39740,"Reading, PA",1,428,"Philadelphia-Reading-Camden, PA-NJ-DE-MD",N,N,4206,42129,42029,2017-2018,21,0.0,1,21
4206810,Cornell SD,42,1099 Maple Street,Coraopolis,PA,15108,42,42003,Allegheny County,40.51094,-80.16442,38300,"Pittsburgh, PA",1,430,"Pittsburgh-New Castle-Weirton, PA-OH-WV",N,N,4214,42045,42042,2017-2018,21,0.0,1,21
4206840,Cornwall-Lebanon SD,42,105 E Evergreen Rd,Lebanon,PA,17042,42,42075,Lebanon County,40.31146,-76.397741,30140,"Lebanon, PA",1,276,"Harrisburg-York-Lebanon, PA",N,N,4206,42102,42048,2017-2018,23,20.85,2,"23, 41"
4206860,Corry Area SD,42,540 East Pleasant Street,Corry,PA,16407,42,42049,Erie County,41.919445,-79.626738,21500,"Erie, PA",1,240,"Erie-Meadville, PA",N,N,4205,42004,42050,2017-2018,41,46.8,2,"32, 41"
4206930,Coudersport Area SD,42,698 Dwight Street,Coudersport,PA,16915,42,42105,Potter County,41.773428,-78.01072500000001,N,N,0,N,N,N,N,4205,42067,42025,2017-2018,43,0.0,1,43
4206960,Council Rock SD,42,30 N Chancellor St,Newtown,PA,18940,42,42017,Bucks County,40.2303,-74.9328,37980,"Philadelphia-Camden-Wilmington, PA-NJ-DE-MD",1,428,"Philadelphia-Reading-Camden, PA-NJ-DE-MD",N,N,4208,42031,42010,2017-2018,21,13.59,2,"21, 41"
4207050,Cranberry Area SD,42,3 Education Dr,Seneca,PA,16346,42,42121,Venango County,41.367376,-79.70958,36340,"Oil City, PA",2,N,N,N,N,4205,42064,42021,2017-2018,41,0.0,1,41
4207080,Crawford Central SD,42,11280 Mercer Pike,Meadville,PA,16335,42,42039,Crawford County,41.6222,-80.1678,32740,"Meadville, PA",2,240,"Erie-Meadville, PA",N,N,4203,42006,42050,2017-2018,32,33.07,3,"32, 41, 42"
4207110,Cumberland Valley SD,42,6746 Carlisle Pike,Mechanicsburg,PA,17050,42,42041,Cumberland County,40.241818,-77.065006,25420,"Harrisburg-Carlisle, PA",1,276,"Harrisburg-York-Lebanon, PA",N,N,4204,42199,42031,2017-2018,21,16.19,2,"21, 41"
4207140,Curwensville Area SD,42,650 Beech St,Curwensville,PA,16833,42,42033,Clearfield County,40.967693,-78.518925,20180,"DuBois, PA",2,524,"State College-DuBois, PA",N,N,4205,42073,42035,2017-2018,32,0.1,2,"32, 42"
4207200,Dallas SD,42,2010 Conyngham Ave,Dallas,PA,18612,42,42079,Luzerne County,41.34612,-75.96256,42540,"Scranton--Wilkes-Barre--Hazleton, PA",1,N,N,N,N,4211,42117,42020,2017-2018,21,45.4,2,"21, 41"
4207230,Dallastown Area SD,42,700 New School Ln,Dallastown,PA,17313,42,42133,York County,39.893677,-76.65257,49620,"York-Hanover, PA",1,276,"Harrisburg-York-Lebanon, PA",N,N,4204,42093,42028,2017-2018,22,7.35,2,"22, 41"
4207290,Daniel Boone Area SD,42,Daniel Boone Area SD Administrative Offi,Douglassville,PA,19518,42,42011,Berks County,40.297665,-75.73548600000001,39740,"Reading, PA",1,428,"Philadelphia-Reading-Camden, PA-NJ-DE-MD",N,N,4207,42130,42044,2017-2018,22,24.78,2,"22, 41"
4207320,Danville Area SD,42,733 Ironmen Lane,Danville,PA,17821,42,42093,Montour County,40.957847,-76.600491,14100,"Bloomsburg-Berwick, PA",1,146,"Bloomsburg-Berwick-Sunbury, PA",N,N,4211,42107,42027,2017-2018,23,22.1,2,"23, 41"
4207385,Dauphin County Technical School,42,6001 Locust Lane,Harrisburg,PA,17109,42,42043,Dauphin County,40.29439,-76.78186000000001,25420,"Harrisburg-Carlisle, PA",1,276,"Harrisburg-York-Lebanon, PA",N,N,4211,42105,42015,2017-2018,21,0.0,1,21
4207530,Delaware Valley SD,42,236 Route 6 and 209,Milford,PA,18337,42,42103,Pike County,41.351496,-74.736303,35620,"New York-Newark-Jersey City, NY-NJ-PA",1,408,"New York-Newark, NY-NJ-CT-PA",N,N,4210,42139,42020,2017-2018,32,43.81,3,"32, 41, 42"
4207540,Deer Lakes SD,42,19 East Union Road,Cheswick,PA,15024,42,42003,Allegheny County,40.624298,-79.85826300000001,38300,"Pittsburgh, PA",1,430,"Pittsburgh-New Castle-Weirton, PA-OH-WV",N,N,4212,42054,42038,2017-2018,21,0.0,1,21
4207560,Derry Area SD,42,982 N Chestnut Street Ext,Derry,PA,15627,42,42129,Westmoreland County,40.339133,-79.312141,38300,"Pittsburgh, PA",1,430,"Pittsburgh-New Castle-Weirton, PA-OH-WV",N,N,4212,42055,42039,2017-2018,21,46.43,2,"21, 41"
4207590,Derry Township SD,42,30 East Granada Ave,Hershey,PA,17033,42,42043,Dauphin County,40.2835,-76.6497,25420,"Harrisburg-Carlisle, PA",1,276,"Harrisburg-York-Lebanon, PA",N,N,4215,42106,42015,2017-2018,21,0.0,1,21
4207650,Donegal SD,42,1051 Koser Rd,Mount Joy,PA,17552,42,42071,Lancaster County,40.094787,-76.511204,29540,"Lancaster, PA",1,N,N,N,N,4216,42098,42036,2017-2018,41,30.58,2,"21, 41"
4207680,Dover Area SD,42,101 Edgeway Road,Dover,PA,17315,42,42133,York County,40.006357,-76.846231,49620,"York-Hanover, PA",1,276,"Harrisburg-York-Lebanon, PA",N,N,4204,42196,42031,2017-2018,22,29.73,2,"22, 41"
4207710,Downingtown Area SD,42,540 Trestle Place,Downingtown,PA,19335,42,42029,Chester County,39.9977,-75.6982,37980,"Philadelphia-Camden-Wilmington, PA-NJ-DE-MD",1,428,"Philadelphia-Reading-Camden, PA-NJ-DE-MD",N,N,4206,42074,42019,2017-2018,21,3.9,2,"21, 41"
4207830,Dubois Area SD,42,500 Liberty Blvd,DuBois,PA,15801,42,42033,Clearfield County,41.1232,-78.7574,20180,"DuBois, PA",2,524,"State College-DuBois, PA",N,N,4205,42075,42025,2017-2018,33,0.09,3,"33, 41, 42"
4207980,Dunmore SD,42,300 W Warren St,Dunmore,PA,18512,42,42069,Lackawanna County,41.428464,-75.633869,42540,"Scranton--Wilkes-Barre--Hazleton, PA",1,N,N,N,N,4217,42112,42022,2017-2018,21,0.0,1,21
4208010,Duquesne City SD,42,300 Kennedy Ave,Duquesne,PA,15110,42,42003,Allegheny County,40.371975,-79.848206,38300,"Pittsburgh, PA",1,430,"Pittsburgh-New Castle-Weirton, PA-OH-WV",N,N,4214,42035,42045,2017-2018,21,0.0,1,21
4208060,East Allegheny SD,42,1150 Jacks Run Rd,North Versailles,PA,15137,42,42003,Allegheny County,40.365922000000005,-79.787345,38300,"Pittsburgh, PA",1,430,"Pittsburgh-New Castle-Weirton, PA-OH-WV",N,N,4214,42025,42045,2017-2018,21,0.0,1,21
4208280,Forest Area SD,42,22318 Route 62 Box 16,Tionesta,PA,16353,42,42053,Forest County,41.545119,-79.432719,N,N,0,N,N,N,N,4205,42065,42021,2017-2018,43,0.0,1,43
4208460,Eastern Lebanon County SD,42,180 Elco Dr,Myerstown,PA,17067,42,42075,Lebanon County,40.344805,-76.288145,30140,"Lebanon, PA",1,276,"Harrisburg-York-Lebanon, PA",N,N,4206,42102,42048,2017-2018,41,0.0,1,41
4208490,East Lycoming SD,42,349 Cemetery St,Hughesville,PA,17737,42,42081,Lycoming County,41.239985,-76.73248000000001,48700,"Williamsport, PA",1,558,"Williamsport-Lock Haven, PA",N,N,4210,42084,42023,2017-2018,31,15.04,2,"31, 42"
4208550,East Penn SD,42,800 Pine Street,Emmaus,PA,18049,42,42077,Lehigh County,40.53719,-75.506173,10900,"Allentown-Bethlehem-Easton, PA-NJ",1,408,"New York-Newark, NY-NJ-CT-PA",N,N,4215,42131,42018,2017-2018,21,0.0,1,21
4208580,East Pennsboro Area SD,42,890 Valley St,Enola,PA,17025,42,42041,Cumberland County,40.30216,-76.94632200000001,25420,"Harrisburg-Carlisle, PA",1,276,"Harrisburg-York-Lebanon, PA",N,N,4204,42087,42031,2017-2018,21,0.0,1,21
4208670,East Stroudsburg Area SD,42,50 Vine St,East Stroudsburg,PA,18301,42,42089,Monroe County,41.005030000000005,-75.184391,20700,"East Stroudsburg, PA",1,408,"New York-Newark, NY-NJ-CT-PA",N,N,4210,42115,42040,2017-2018,41,58.64,4,"13, 23, 41, 42"
4208790,Eastern York SD,42,120 S Third St,Wrightsville,PA,17368,42,42133,York County,40.023908,-76.53152800000001,49620,"York-Hanover, PA",1,276,"Harrisburg-York-Lebanon, PA",N,N,4204,42047,42028,2017-2018,41,47.32,4,"21, 22, 31, 41"
4208820,Eastern Lancaster County SD,42,669 E Main St,New Holland,PA,17557,42,42071,Lancaster County,40.11216,-76.069523,29540,"Lancaster, PA",1,N,N,N,N,4216,42099,42036,2017-2018,21,14.71,2,"21, 41"
4208850,Easton Area SD,42,1801 Bushkill Drive,Easton,PA,18040,42,42095,Northampton County,40.7016,-75.2414,10900,"Allentown-Bethlehem-Easton, PA-NJ",1,408,"New York-Newark, NY-NJ-CT-PA",N,N,4217,42137,42040,2017-2018,21,0.0,1,21
4209090,Elizabeth Forward SD,42,401 Rock Run Road,Elizabeth,PA,15037,42,42003,Allegheny County,40.276285,-79.825965,38300,"Pittsburgh, PA",1,430,"Pittsburgh-New Castle-Weirton, PA-OH-WV",N,N,4218,42039,42045,2017-2018,21,46.43,2,"21, 41"
4209120,Elizabethtown Area SD,42,600 E High St,Elizabethtown,PA,17022,42,42071,Lancaster County,40.155968,-76.594184,29540,"Lancaster, PA",1,N,N,N,N,4216,42098,42036,2017-2018,21,10.45,2,"21, 41"
4209150,Elk Lake SD,42,2380 Elk Lake School Road,Springville,PA,18844,42,42115,Susquehanna County,41.7386,-75.9558,N,N,0,N,N,N,N,4210,42110,42023,2017-2018,42,0.0,1,42
4209240,Ellwood City Area SD,42,501 Crescent Ave,Ellwood City,PA,16117,42,42073,Lawrence County,40.857046,-80.286851,35260,"New Castle, PA",2,430,"Pittsburgh-New Castle-Weirton, PA-OH-WV",N,N,4212,42010,42047,2017-2018,31,0.0,1,31
4209270,Ephrata Area SD,42,803 Oak Blvd,Ephrata,PA,17522,42,42071,Lancaster County,40.180269,-76.19111000000001,29540,"Lancaster, PA",1,N,N,N,N,4216,42099,42036,2017-2018,21,11.21,2,"21, 41"
4209300,Erie City SD,42,148 W 21st St,Erie,PA,16502,42,42049,Erie County,42.1149,-80.0795,21500,"Erie, PA",1,240,"Erie-Meadville, PA",N,N,4203,42002,42049,2017-2018,13,0.0,1,13
4209360,Everett Area SD,42,427 E SOUTH ST,EVERETT,PA,15537,42,42009,Bedford County,40.0107,-78.364467,N,N,0,N,N,N,N,4209,42078,42035,2017-2018,32,44.03,3,"32, 41, 42"
4209480,Exeter Township SD,42,200 Elm St,Reading,PA,19606,42,42011,Berks County,40.322505,-75.86023,39740,"Reading, PA",1,428,"Philadelphia-Reading-Camden, PA-NJ-DE-MD",N,N,4206,42126,42011,2017-2018,21,13.94,2,"21, 41"
4209540,Fairfield Area SD,42,4840 Fairfield Rd,Fairfield,PA,17320,42,42001,Adams County,39.78199,-77.375131,23900,"Gettysburg, PA",1,276,"Harrisburg-York-Lebanon, PA",N,N,4204,42091,42033,2017-2018,41,0.0,1,41
4209570,Fairview SD,42,7466 McCray Rd,Fairview,PA,16415,42,42049,Erie County,42.02252,-80.248011,21500,"Erie, PA",1,240,"Erie-Meadville, PA",N,N,4203,42006,42049,2017-2018,41,36.29,2,"22, 41"
4209600,Karns City Area SD,42,1446 Kittanning Pike,Karns City,PA,16041,42,42019,Butler County,40.988411,-79.726682,38300,"Pittsburgh, PA",1,430,"Pittsburgh-New Castle-Weirton, PA-OH-WV",N,N,4203,42011,42041,2017-2018,42,0.0,1,42
4209660,Fannett-Metal SD,42,14823 Path Valley Road,Willow Hill,PA,17271,42,42055,Franklin County,40.119294,-77.783857,16540,"Chambersburg-Waynesboro, PA",1,548,"Washington-Baltimore-Arlington, DC-MD-VA-WV-PA",N,N,4209,42082,42030,2017-2018,42,0.0,1,42
4209690,Farrell Area SD,42,1600 Roemer Blvd,Farrell,PA,16121,42,42085,Mercer County,41.215566,-80.487668,49660,"Youngstown-Warren-Boardman, OH-PA",1,566,"Youngstown-Warren, OH-PA",N,N,4203,42007,42050,2017-2018,21,0.0,1,21
4209750,Ferndale Area SD,42,100 Dartmouth Ave,Johnstown,PA,15905,42,42021,Cambria County,40.317619,-78.931143,27780,"Johnstown, PA",1,306,"Johnstown-Somerset, PA",N,N,4212,42071,42035,2017-2018,23,0.0,1,23
4209780,Fleetwood Area SD,42,801 N Richmond St,Fleetwood,PA,19522,42,42011,Berks County,40.45653,-75.821721,39740,"Reading, PA",1,428,"Philadelphia-Reading-Camden, PA-NJ-DE-MD",N,N,4206,42005,42011,2017-2018,21,25.0,2,"21, 41"
4209870,Forbes Road SD,42,159 Red Bird Drive,Waterfall,PA,16689,42,42057,Fulton County,40.083101,-78.065476,N,N,0,N,N,N,N,4209,42078,42030,2017-2018,42,0.0,1,42
4209930,Forest City Regional SD,42,100 Susquehanna Street,Forest City,PA,18421,42,42115,Susquehanna County,41.643649,-75.474359,N,N,0,N,N,N,N,4210,42111,42020,2017-2018,21,0.0,1,21
4209931,Youth Forestry Camp #3,42,4534 Tar Kiln Road,James Creek,PA,16657,42,42061,Huntingdon County,40.3118,-78.1213,26500,"Huntingdon, PA",2,N,N,N,N,4209,42081,42030,2017-2018,42,0.0,1,42
4209932,Loysville Youth Dev Ctr,42,Loysville Complex,Loysville,PA,17047,42,42099,Perry County,40.36961,-77.348175,25420,"Harrisburg-Carlisle, PA",1,276,"Harrisburg-York-Lebanon, PA",N,N,4210,42086,42015,2017-2018,42,0.0,1,42
4209933,North Central Secure Trmnt Unt,42,13 Kirkbride Drive,Danville,PA,17821,42,42093,Montour County,40.950511,-76.59802,14100,"Bloomsburg-Berwick, PA",1,146,"Bloomsburg-Berwick-Sunbury, PA",N,N,4211,42107,42027,2017-2018,23,0.0,1,23
4209934,Youth Forestry Camp #2,42,Hickory Run State Par,White Haven,PA,18661,42,42025,Carbon County,41.026725,-75.713673,10900,"Allentown-Bethlehem-Easton, PA-NJ",1,408,"New York-Newark, NY-NJ-CT-PA",N,N,4211,42122,42014,2017-2018,42,0.0,1,42
4209940,Forest Hills SD,42,549 Locust Street,Sidman,PA,15955,42,42021,Cambria County,40.333272,-78.755258,27780,"Johnstown, PA",1,306,"Johnstown-Somerset, PA",N,N,4212,42071,42035,2017-2018,41,0.0,1,41
4209960,Fort Cherry SD,42,110 Fort Cherry Road,Mc Donald,PA,15057,42,42125,Washington County,40.345989,-80.280146,38300,"Pittsburgh, PA",1,430,"Pittsburgh-New Castle-Weirton, PA-OH-WV",N,N,4218,42046,42046,2017-2018,41,0.0,1,41
4209990,Fort LeBoeuf SD,42,34 East Ninth St,Waterford,PA,16441,42,42049,Erie County,41.950642,-79.988894,21500,"Erie, PA",1,240,"Erie-Meadville, PA",N,N,4205,42004,42050,2017-2018,42,20.23,2,"22, 42"
4210070,Fox Chapel Area SD,42,611 Field Club Rd,Pittsburgh,PA,15238,42,42003,Allegheny County,40.518803,-79.869285,38300,"Pittsburgh, PA",1,430,"Pittsburgh-New Castle-Weirton, PA-OH-WV",N,N,4212,42032,42038,2017-2018,21,0.0,1,21
4210110,North Schuylkill SD,42,15 Academy Lane,Ashland,PA,17921,42,42107,Schuylkill County,40.774363,-76.294732,39060,"Pottsville, PA",2,N,N,N,N,4217,42123,42029,2017-2018,41,0.0,1,41
4210115,North Star SD,42,1200 Morris Ave,Boswell,PA,15531,42,42111,Somerset County,40.158100000000005,-79.0346,43740,"Somerset, PA",2,306,"Johnstown-Somerset, PA",N,N,4212,42059,42032,2017-2018,42,0.0,1,42
4210200,Franklin Area SD,42,702 Liberty Street,Franklin,PA,16323,42,42121,Venango County,41.38779,-79.822771,36340,"Oil City, PA",2,N,N,N,N,4205,42064,42021,2017-2018,41,36.52,3,"32, 41, 42"
4210230,Franklin Regional SD,42,3210 School Rd,Murrysville,PA,15668,42,42129,Westmoreland County,40.42611,-79.668181,38300,"Pittsburgh, PA",1,430,"Pittsburgh-New Castle-Weirton, PA-OH-WV",N,N,4212,42054,42041,2017-2018,21,17.38,2,"21, 41"
4210350,Frazier SD,42,142 Constitution St,Perryopolis,PA,15473,42,42051,Fayette County,40.088222,-79.755003,38300,"Pittsburgh, PA",1,430,"Pittsburgh-New Castle-Weirton, PA-OH-WV",N,N,4209,42052,42032,2017-2018,41,0.0,1,41
4210380,Freedom Area SD,42,1702 School Street,Freedom,PA,15042,42,42007,Beaver County,40.677185,-80.244028,38300,"Pittsburgh, PA",1,430,"Pittsburgh-New Castle-Weirton, PA-OH-WV",N,N,4212,42016,42047,2017-2018,21,0.0,1,21
4210440,Freeport Area SD,42,621 South Pike Rd,Sarver,PA,16055,42,42019,Butler County,40.70171,-79.72102100000001,38300,"Pittsburgh, PA",1,430,"Pittsburgh-New Castle-Weirton, PA-OH-WV",N,N,4203,42060,42041,2017-2018,41,0.0,1,41
4210530,Galeton Area SD,42,27 Bridge Street,Galeton,PA,16922,42,42105,Potter County,41.736597,-77.639016,N,N,0,N,N,N,N,4205,42068,42025,2017-2018,43,0.0,1,43
4210590,Garnet Valley SD,42,80 Station Road,Glen Mills,PA,19342,42,42045,Delaware County,39.871331000000005,-75.511916,37980,"Philadelphia-Camden-Wilmington, PA-NJ-DE-MD",1,428,"Philadelphia-Reading-Camden, PA-NJ-DE-MD",N,N,4207,42160,42009,2017-2018,21,0.0,1,21
4210620,Gateway SD,42,9000 Gateway Campus Boulevard,Monroeville,PA,15146,42,42003,Allegheny County,40.428869,-79.758506,38300,"Pittsburgh, PA",1,430,"Pittsburgh-New Castle-Weirton, PA-OH-WV",N,N,4218,42025,42045,2017-2018,21,0.0,1,21
4210650,General McLane SD,42,11771 Edinboro Rd,Edinboro,PA,16412,42,42049,Erie County,41.91468,-80.124561,21500,"Erie, PA",1,240,"Erie-Meadville, PA",N,N,4205,42003,42050,2017-2018,41,0.0,1,41
4210710,Gettysburg Area SD,42,900 Biglerville Rd,Gettysburg,PA,17325,42,42001,Adams County,39.8505,-77.2328,23900,"Gettysburg, PA",1,276,"Harrisburg-York-Lebanon, PA",N,N,4204,42091,42033,2017-2018,41,50.43,3,"13, 41, 42"
4210740,Girard SD,42,1203 Lake St,Girard,PA,16417,42,42049,Erie County,42.008174,-80.334055,21500,"Erie, PA",1,240,"Erie-Meadville, PA",N,N,4203,42017,42049,2017-2018,22,0.0,1,22
4210830,Glendale SD,42,1466 Beaver Valley Rd,Flinton,PA,16640,42,42021,Cambria County,40.700597,-78.541223,27780,"Johnstown, PA",1,306,"Johnstown-Somerset, PA",N,N,4209,42072,42035,2017-2018,42,0.0,1,42
4210860,Governor Mifflin SD,42,10 South Waverly Street,Shillington,PA,19607,42,42011,Berks County,40.305301,-75.962615,39740,"Reading, PA",1,428,"Philadelphia-Reading-Camden, PA-NJ-DE-MD",N,N,4206,42128,42011,2017-2018,21,0.0,1,21
4210870,Great Valley SD,42,47 Church Rd,Malvern,PA,19355,42,42029,Chester County,40.0423,-75.55980000000001,37980,"Philadelphia-Camden-Wilmington, PA-NJ-DE-MD",1,428,"Philadelphia-Reading-Camden, PA-NJ-DE-MD",N,N,4206,42167,42019,2017-2018,21,7.97,2,"21, 41"
4210920,Greensburg Salem SD,42,1 Academy Hill Place,Greensburg,PA,15601,42,42129,Westmoreland County,40.306239,-79.54546,38300,"Pittsburgh, PA",1,430,"Pittsburgh-New Castle-Weirton, PA-OH-WV",N,N,4218,42057,42039,2017-2018,21,12.1,2,"21, 41"
4210950,Greater Johnstown SD,42,1091 Broad St,Johnstown,PA,15906,42,42021,Cambria County,40.344100000000005,-78.938111,27780,"Johnstown, PA",1,306,"Johnstown-Somerset, PA",N,N,4212,42071,42035,2017-2018,13,44.23,2,"13, 23"
4210970,Greater Johnstown CTC,42,445 Schoolhouse Road,Johnstown,PA,15904,42,42021,Cambria County,40.27262,-78.831202,27780,"Johnstown, PA",1,306,"Johnstown-Somerset, PA",N,N,4212,42071,42035,2017-2018,23,0.0,1,23
4210980,Greater Latrobe SD,42,1816 Lincoln Ave,Latrobe,PA,15650,42,42129,Westmoreland County,40.3097,-79.375,38300,"Pittsburgh, PA",1,430,"Pittsburgh-New Castle-Weirton, PA-OH-WV",N,N,4218,42055,42039,2017-2018,21,0.0,1,21
4211010,Greencastle-Antrim SD,42,500 East Leitersburg Street,Greencastle,PA,17225,42,42055,Franklin County,39.77993,-77.72212,16540,"Chambersburg-Waynesboro, PA",1,548,"Washington-Baltimore-Arlington, DC-MD-VA-WV-PA",N,N,4209,42090,42030,2017-2018,22,0.0,1,22
4211160,Greenville Area SD,42,9 Donation Rd,Greenville,PA,16125,42,42085,Mercer County,41.403116,-80.3726,49660,"Youngstown-Warren-Boardman, OH-PA",1,566,"Youngstown-Warren, OH-PA",N,N,4203,42007,42050,2017-2018,31,0.0,1,31
4211190,Greenwood SD,42,405 E Sunbury St,Millerstown,PA,17062,42,42099,Perry County,40.551672,-77.151598,25420,"Harrisburg-Carlisle, PA",1,276,"Harrisburg-York-Lebanon, PA",N,N,4210,42086,42015,2017-2018,42,0.0,1,42
4211220,Grove City Area SD,42,511 Highland Ave,Grove City,PA,16127,42,42085,Mercer County,41.162071000000005,-80.098856,49660,"Youngstown-Warren-Boardman, OH-PA",1,566,"Youngstown-Warren, OH-PA",N,N,4203,42008,42050,2017-2018,32,0.0,1,32
4211310,Halifax Area SD,42,3940 Peters Mountain Rd,Halifax,PA,17032,42,42043,Dauphin County,40.462107,-76.929034,25420,"Harrisburg-Carlisle, PA",1,276,"Harrisburg-York-Lebanon, PA",N,N,4211,42104,42015,2017-2018,42,0.0,1,42
4211340,Hamburg Area SD,42,Windsor Street,Hamburg,PA,19526,42,42011,Berks County,40.551164,-75.97412800000001,39740,"Reading, PA",1,428,"Philadelphia-Reading-Camden, PA-NJ-DE-MD",N,N,4215,42124,42029,2017-2018,21,24.22,2,"21, 41"
4211400,Hampton Township SD,42,4591 School Dr,Allison Park,PA,15101,42,42003,Allegheny County,40.588844,-79.945282,38300,"Pittsburgh, PA",1,430,"Pittsburgh-New Castle-Weirton, PA-OH-WV",N,N,4212,42030,42038,2017-2018,21,0.0,1,21
4211420,Hanover Area SD,42,1600 Sans Souci Pkwy,Hanover Township,PA,18706,42,42079,Luzerne County,41.214082000000005,-75.949562,42540,"Scranton--Wilkes-Barre--Hazleton, PA",1,N,N,N,N,4211,42121,42014,2017-2018,21,0.0,1,21
4211450,Hanover Public SD,42,403 Moul Ave,Hanover,PA,17331,42,42133,York County,39.81934,-76.969711,49620,"York-Hanover, PA",1,276,"Harrisburg-York-Lebanon, PA",N,N,4204,42169,42033,2017-2018,13,0.0,1,13
4211490,Harbor Creek SD,42,6375 Buffalo Rd,Harborcreek,PA,16421,42,42049,Erie County,42.162311,-79.954606,21500,"Erie, PA",1,240,"Erie-Meadville, PA",N,N,4205,42004,42049,2017-2018,22,13.67,2,"22, 41"
4211520,Harmony Area SD,42,5239 Ridge Rd,Westover,PA,16692,42,42033,Clearfield County,40.778346,-78.726279,20180,"DuBois, PA",2,524,"State College-DuBois, PA",N,N,4205,42073,42035,2017-2018,42,0.0,1,42
4211580,Harrisburg City SD,42,1601 State Street,Harrisburg,PA,17103,42,42043,Dauphin County,40.27077,-76.867261,25420,"Harrisburg-Carlisle, PA",1,276,"Harrisburg-York-Lebanon, PA",N,N,4204,42103,42015,2017-2018,13,0.0,1,13
4211610,Hatboro-Horsham SD,42,229 Meetinghouse Rd,Horsham,PA,19044,42,42091,Montgomery County,40.18536,-75.12808100000001,37980,"Philadelphia-Camden-Wilmington, PA-NJ-DE-MD",1,428,"Philadelphia-Reading-Camden, PA-NJ-DE-MD",N,N,4213,42151,42012,2017-2018,21,0.0,1,21
4211670,Haverford Township SD,42,50 East Eagle Road,Havertown,PA,19083,42,42045,Delaware County,39.989054,-75.309107,37980,"Philadelphia-Camden-Wilmington, PA-NJ-DE-MD",1,428,"Philadelphia-Reading-Camden, PA-NJ-DE-MD",N,N,4207,42166,42017,2017-2018,21,0.0,1,21
4211700,Hazleton Area SD,42,1515 W 23rd St,Hazle Twp,PA,18202,42,42079,Luzerne County,40.9724,-75.9922,42540,"Scranton--Wilkes-Barre--Hazleton, PA",1,N,N,N,N,4211,42119,42014,2017-2018,23,28.35,3,"13, 23, 41"
4211730,Saucon Valley SD,42,2097 Polk Valley Rd,Hellertown,PA,18055,42,42095,Northampton County,40.57133,-75.329181,10900,"Allentown-Bethlehem-Easton, PA-NJ",1,408,"New York-Newark, NY-NJ-CT-PA",N,N,4215,42131,42018,2017-2018,21,0.0,1,21
4211760,Hempfield Area SD,42,4347 Route 136,Greensburg,PA,15601,42,42129,Westmoreland County,40.281062,-79.59744500000001,38300,"Pittsburgh, PA",1,430,"Pittsburgh-New Castle-Weirton, PA-OH-WV",N,N,4218,42057,42039,2017-2018,21,32.83,2,"21, 41"
4211790,Hempfield  SD,42,200 Church St,Landisville,PA,17538,42,42071,Lancaster County,40.041498,-76.427318,29540,"Lancaster, PA",1,N,N,N,N,4216,42041,42036,2017-2018,21,0.0,1,21
4211820,Hermitage SD,42,411 N Hermitage Road,Hermitage,PA,16148,42,42085,Mercer County,41.239114,-80.44987900000001,49660,"Youngstown-Warren-Boardman, OH-PA",1,566,"Youngstown-Warren, OH-PA",N,N,4203,42007,42050,2017-2018,21,0.0,1,21
4211880,Highlands SD,42,1500 Pacific Avenue,Natrona Heights,PA,15065,42,42003,Allegheny County,40.618039,-79.726597,38300,"Pittsburgh, PA",1,430,"Pittsburgh-New Castle-Weirton, PA-OH-WV",N,N,4214,42033,42038,2017-2018,21,11.05,2,"21, 41"
4211940,Hollidaysburg Area SD,42,405 Clark Street,Hollidaysburg,PA,16648,42,42013,Blair County,40.430966,-78.389168,11020,"Altoona, PA",1,N,N,N,N,4209,42080,42030,2017-2018,23,0.0,1,23
4212030,Hopewell Area SD,42,2354 Brodhead Rd,Aliquippa,PA,15001,42,42007,Beaver County,40.590386,-80.26220500000001,38300,"Pittsburgh, PA",1,430,"Pittsburgh-New Castle-Weirton, PA-OH-WV",N,N,4212,42016,42046,2017-2018,21,11.04,2,"21, 41"
4212090,Huntingdon Area SD,42,2400 Cassady Ave,Huntingdon,PA,16652,42,42061,Huntingdon County,40.50452,-78.011971,26500,"Huntingdon, PA",2,N,N,N,N,4205,42081,42034,2017-2018,32,0.0,1,32
4212150,Indiana Area SD,42,501 E Pike,Indiana,PA,15701,42,42063,Indiana County,40.621305,-79.123993,26860,"Indiana, PA",2,430,"Pittsburgh-New Castle-Weirton, PA-OH-WV",N,N,4209,42062,42041,2017-2018,32,14.58,2,"32, 41"
4212170,Interboro SD,42,900 Washington Ave,Prospect Park,PA,19076,42,42045,Delaware County,39.886673,-75.303336,37980,"Philadelphia-Camden-Wilmington, PA-NJ-DE-MD",1,428,"Philadelphia-Reading-Camden, PA-NJ-DE-MD",N,N,4207,42162,42026,2017-2018,21,0.0,1,21
4212210,Iroquois SD,42,800 Tyndall Avenue,Erie,PA,16511,42,42049,Erie County,42.153071,-80.010563,21500,"Erie, PA",1,240,"Erie-Meadville, PA",N,N,4205,42001,42049,2017-2018,22,0.0,1,22
4212300,Jamestown Area SD,42,204 Shenango Street,Jamestown,PA,16134,42,42085,Mercer County,41.485314,-80.433143,49660,"Youngstown-Warren-Boardman, OH-PA",1,566,"Youngstown-Warren, OH-PA",N,N,4203,42017,42050,2017-2018,42,0.0,1,42
4212330,Jeannette City SD,42,800 Florida Ave,Jeannette,PA,15644,42,42129,Westmoreland County,40.314931,-79.60815000000001,38300,"Pittsburgh, PA",1,430,"Pittsburgh-New Castle-Weirton, PA-OH-WV",N,N,4218,42058,42039,2017-2018,21,0.0,1,21
4212335,Jefferson County-DuBois AVTS,42,576 Vo Tech Rd,Reynoldsville,PA,15851,42,42065,Jefferson County,41.10946,-78.89244000000001,N,N,0,N,N,N,N,4205,42066,42025,2017-2018,33,0.0,1,33
4212390,Jefferson-Morgan SD,42,1351 Jefferson Rd,Jefferson,PA,15344,42,42059,Greene County,39.928432,-80.064926,N,N,0,N,N,N,N,4209,42050,42046,2017-2018,42,0.0,1,42
4212420,Jenkintown SD,42,West and Highland Avenues,Jenkintown,PA,19046,42,42091,Montgomery County,40.095879,-75.132822,37980,"Philadelphia-Camden-Wilmington, PA-NJ-DE-MD",1,428,"Philadelphia-Reading-Camden, PA-NJ-DE-MD",N,N,4213,42154,42004,2017-2018,21,0.0,1,21
4212480,Jersey Shore Area SD,42,175 A & P Drive,Jersey Shore,PA,17740,42,42081,Lycoming County,41.210640000000005,-77.251431,48700,"Williamsport, PA",1,558,"Williamsport-Lock Haven, PA",N,N,4210,42084,42023,2017-2018,31,18.28,2,"31, 41"
4212540,Jim Thorpe Area SD,42,410 Center Ave,Jim Thorpe,PA,18229,42,42025,Carbon County,40.8731,-75.73230000000001,10900,"Allentown-Bethlehem-Easton, PA-NJ",1,408,"New York-Newark, NY-NJ-CT-PA",N,N,4217,42122,42014,2017-2018,31,33.93,2,"31, 41"
4212570,Johnsonburg Area SD,42,315 High School Road,Johnsonburg,PA,15845,42,42047,Elk County,41.506559,-78.683394,41260,"St. Marys, PA",2,N,N,N,N,4205,42075,42025,2017-2018,42,0.0,1,42
4212600,Juniata County SD,42,146 Weatherby Way,Mifflintown,PA,17059,42,42067,Juniata County,40.584786,-77.365635,N,N,0,N,N,N,N,4210,42082,42034,2017-2018,32,49.59,3,"32, 41, 42"
4212630,Juniata Valley SD,42,7775 Juniata Valley Pike,Alexandria,PA,16611,42,42061,Huntingdon County,40.56315,-78.076021,26500,"Huntingdon, PA",2,N,N,N,N,4205,42081,42030,2017-2018,42,0.0,1,42
