LEAID,NAME,OPSTFIPS,STREET,CITY,STATE,ZIP,STFIP,CNTY,NMCNTY,LAT,LON,CBSA,NMCBSA,CBSATYPE,CSA,NMCSA,NECTA,NMNECTA,CD,SLDL,SLDU,SCHOOLYEAR,LOCALE,LOC_OTHER,LOC_COUNT,LOC_SCH
4800001,CROSBYTON CISD,48,204 S HARRISON ST,CROSBYTON,TX,79322,48,48107,Crosby County,33.65855,-101.247101,31180,"Lubbock, TX",1,352,"Lubbock-Levelland, TX",N,N,4819,48068,48028,2017-2018,43,0.0,1,43
4800002,SPUR ISD,48,800 N WILLIAMS,SPUR,TX,79370,48,48125,Dickens County,33.48351,-100.860307,N,N,0,N,N,N,N,4813,48068,48028,2017-2018,43,0.0,1,43
4800003,ROCKSPRINGS ISD,48,201 N HWY 377,ROCKSPRINGS,TX,78880,48,48137,Edwards County,30.017526,-100.205049,N,N,0,N,N,N,N,4823,48053,48019,2017-2018,43,0.0,1,43
4800004,POR VIDA ACADEMY,48,1135 MISSION RD,SAN ANTONIO,TX,78210,48,48029,Bexar County,29.385586,-98.490978,41700,"San Antonio-New Braunfels, TX",1,N,N,N,N,4835,48119,48026,2017-2018,11,0.0,1,11
4800005,BLACKWELL CISD,48,610 N ALAMO,BLACKWELL,TX,79506,48,48353,Nolan County,32.091386,-100.323999,45020,"Sweetwater, TX",2,N,N,N,N,4819,48071,48028,2017-2018,43,0.63,2,"41, 43"
4800006,ASPERMONT ISD,48,528 E SEVENTH ST,ASPERMONT,TX,79502,48,48433,Stonewall County,33.138486,-100.222478,N,N,0,N,N,N,N,4819,48068,48028,2017-2018,43,0.0,1,43
4800007,PANTHER CREEK CISD,48,129 PR 3421,VALERA,TX,76884,48,48083,Coleman County,31.638014,-99.553081,N,N,0,N,N,N,N,4811,48060,48028,2017-2018,43,0.0,1,43
4800008,DRIPPING SPRINGS ISD,48,510 W MERCER ST,DRIPPING SPRINGS,TX,78620,48,48209,Hays County,30.194090000000003,-98.094371,12420,"Austin-Round Rock, TX",1,N,N,N,N,4825,48045,48025,2017-2018,42,36.19,2,"41, 42"
4800009,WIMBERLEY ISD,48,951 FM 2325,WIMBERLEY,TX,78676,48,48209,Hays County,30.0056,-98.114111,12420,"Austin-Round Rock, TX",1,N,N,N,N,4825,48045,48025,2017-2018,41,42.04,2,"32, 41"
4800010,HAYS CISD,48,21003 INTERSTATE 35,KYLE,TX,78640,48,48209,Hays County,30.0083,-97.8629,12420,"Austin-Round Rock, TX",1,N,N,N,N,4835,48045,48025,2017-2018,21,46.69,2,"21, 41"
4800011,ALVARADO ISD,48,102 S BILL JACKSON DR,ALVARADO,TX,76009,48,48251,Johnson County,32.406980000000004,-97.220652,19100,"Dallas-Fort Worth-Arlington, TX",1,206,"Dallas-Fort Worth, TX-OK",N,N,4825,48058,48022,2017-2018,41,29.74,2,"31, 41"
4800012,CHISUM ISD,48,3250 S CHURCH ST,PARIS,TX,75462,48,48277,Lamar County,33.626189000000004,-95.564523,37580,"Paris, TX",2,N,N,N,N,4804,48001,48001,2017-2018,41,0.0,1,41
4800014,GEORGE GERVIN ACADEMY,48,6944 SUNBELT DR S,SAN ANTONIO,TX,78218,48,48029,Bexar County,29.491200000000003,-98.4284,41700,"San Antonio-New Braunfels, TX",1,N,N,N,N,4835,48120,48026,2017-2018,11,0.0,1,11
4800016,TEXANS CAN ACADEMIES,48,325 W 12TH STE 200,DALLAS,TX,75208,48,48113,Dallas County,32.741615,-96.82762,19100,"Dallas-Fort Worth-Arlington, TX",1,206,"Dallas-Fort Worth, TX-OK",N,N,4833,48104,48023,2017-2018,11,12.2,2,"11, 21"
4800018,SER-NINOS CHARTER SCHOOL,48,5815 ALDER DR,HOUSTON,TX,77081,48,48201,Harris County,29.71828,-95.47854,26420,"Houston-The Woodlands-Sugar Land, TX",1,288,"Houston-The Woodlands, TX",N,N,4807,48137,48013,2017-2018,11,0.0,1,11
4800019,ARISTOI CLASSICAL ACADEMY,48,5618 ELEVENTH ST,KATY,TX,77493,48,48201,Harris County,29.7964,-95.8215,26420,"Houston-The Woodlands-Sugar Land, TX",1,288,"Houston-The Woodlands, TX",N,N,4810,48132,48018,2017-2018,21,0.0,1,21
4800020,GEORGE I SANCHEZ CHARTER,48,6001 GULF FWY BLDG B3,HOUSTON,TX,77023,48,48201,Harris County,29.715211,-95.311719,26420,"Houston-The Woodlands-Sugar Land, TX",1,288,"Houston-The Woodlands, TX",N,N,4829,48145,48006,2017-2018,11,0.0,1,11
4800022,RAUL YZAGUIRRE SCHOOL FOR SUCCESS,48,2255 N CORIA ST,BROWNSVILLE,TX,78520,48,48061,Cameron County,25.935694,-97.508397,15180,"Brownsville-Harlingen, TX",1,154,"Brownsville-Harlingen-Raymondville, TX",N,N,4834,48037,48027,2017-2018,11,28.94,2,"11, 12"
4800024,WACO CHARTER SCHOOL,48,615 N 25TH ST,WACO,TX,76707,48,48309,McLennan County,31.545124,-97.154683,47380,"Waco, TX",1,N,N,N,N,4817,48056,48022,2017-2018,12,0.0,1,12
4800025,DR M L GARZA-GONZALEZ CHARTER SCHOOL,48,4129 GREENWOOD DR,CORPUS CHRISTI,TX,78416,48,48355,Nueces County,27.757901,-97.432938,18580,"Corpus Christi, TX",1,204,"Corpus Christi-Kingsville-Alice, TX",N,N,4827,48034,48020,2017-2018,11,0.0,1,11
4800029,PEGASUS SCHOOL OF LIBERAL ARTS AND SCIENCES,48,601 N AKARD ST STE 203,DALLAS,TX,75201,48,48113,Dallas County,32.78473,-96.80099,19100,"Dallas-Fort Worth-Arlington, TX",1,206,"Dallas-Fort Worth, TX-OK",N,N,4830,48108,48023,2017-2018,11,0.0,1,11
4800030,UPLIFT EDUCATION,48,1825 MARKET CENTER BLVD STE 500,DALLAS,TX,75207,48,48113,Dallas County,32.79448,-96.824251,19100,"Dallas-Fort Worth-Arlington, TX",1,206,"Dallas-Fort Worth, TX-OK",N,N,4830,48100,48023,2017-2018,11,24.59,3,"11, 12, 21"
4800031,UNIVERSITY OF HOUSTON CHARTER SCHOOL,48,3855 HOLMAN ST MELCHER GYM 100,HOUSTON,TX,77204,48,48201,Harris County,29.7236,-95.341,26420,"Houston-The Woodlands-Sugar Land, TX",1,288,"Houston-The Woodlands, TX",N,N,4818,48147,48013,2017-2018,11,0.0,1,11
4800032,ACADEMY OF ACCELERATED LEARNING INC,48,6711 BELLFORT ST,HOUSTON,TX,77087,48,48201,Harris County,29.668098,-95.311084,26420,"Houston-The Woodlands-Sugar Land, TX",1,288,"Houston-The Woodlands, TX",N,N,4809,48147,48006,2017-2018,11,0.0,1,11
4800034,CUMBERLAND ACADEMY,48,1340 SHILOH RD,TYLER,TX,75703,48,48423,Smith County,32.296155,-95.286783,46340,"Tyler, TX",1,540,"Tyler-Jacksonville, TX",N,N,4801,48006,48001,2017-2018,12,31.57,2,"12, 41"
4800035,ALIEF MONTESSORI COMMUNITY SCHOOL,48,4215 H ST,HOUSTON,TX,77072,48,48201,Harris County,29.71196,-95.591291,26420,"Houston-The Woodlands-Sugar Land, TX",1,288,"Houston-The Woodlands, TX",N,N,4809,48149,48013,2017-2018,11,0.0,1,11
4800037,BURNHAM WOOD CHARTER SCHOOL DISTRICT,48,7310 BISHOP FLORES DR,EL PASO,TX,79912,48,48141,El Paso County,31.85745,-106.558859,21340,"El Paso, TX",1,238,"El Paso-Las Cruces, TX-NM",N,N,4816,48078,48029,2017-2018,11,0.0,1,11
4800041,ADVANTAGE ACADEMY,48,618 W WHEATLAND RD,DUNCANVILLE,TX,75116,48,48113,Dallas County,32.647400000000005,-96.9217,19100,"Dallas-Fort Worth-Arlington, TX",1,206,"Dallas-Fort Worth, TX-OK",N,N,4830,48111,48023,2017-2018,21,0.0,1,21
4800042,RAPOPORT ACADEMY PUBLIC SCHOOL,48,2000 J J FLEWELLEN,WACO,TX,76704,48,48309,McLennan County,31.582112,-97.134808,47380,"Waco, TX",1,N,N,N,N,4817,48012,48022,2017-2018,12,0.0,1,12
4800044,WAYSIDE SCHOOLS,48,6405 S IH 35,AUSTIN,TX,78744,48,48453,Travis County,30.191454,-97.767058,12420,"Austin-Round Rock, TX",1,N,N,N,N,4835,48051,48021,2017-2018,11,0.0,1,11
4800048,RAVEN SCHOOL,48,143 FOREST SERVICE RD 233,NEW WAVERLY,TX,77358,48,48471,Walker County,30.540639,-95.55683,26660,"Huntsville, TX",2,288,"Houston-The Woodlands, TX",N,N,4808,48018,48005,2017-2018,42,0.0,1,42
4800049,EXCEL ACADEMY,48,1200 CONGRESS ST STE 6500,HOUSTON,TX,77002,48,48201,Harris County,29.7612,-95.359,26420,"Houston-The Woodlands-Sugar Land, TX",1,288,"Houston-The Woodlands, TX",N,N,4818,48145,48013,2017-2018,11,37.24,3,"11, 21, 41"
4800053,INSPIRE ACADEMIES,48,10325 BANDERA RD,SAN ANTONIO,TX,78250,48,48029,Bexar County,29.5397,-98.6524,41700,"San Antonio-New Braunfels, TX",1,N,N,N,N,4820,48125,48019,2017-2018,11,40.9,5,"11, 12, 33, 41, 43"
4800054,KIPP INC CHARTER,48,6700 BELLAIRE BLVD,HOUSTON,TX,77074,48,48201,Harris County,29.70577,-95.502341,26420,"Houston-The Woodlands-Sugar Land, TX",1,288,"Houston-The Woodlands, TX",N,N,4807,48137,48013,2017-2018,11,0.0,1,11
4800055,LIFE SCHOOL,48,132 E OVILLA RD STE A,RED OAK,TX,75154,48,48139,Ellis County,32.5322,-96.813431,19100,"Dallas-Fort Worth-Arlington, TX",1,206,"Dallas-Fort Worth, TX-OK",N,N,4806,48010,48022,2017-2018,21,63.74,3,"11, 21, 41"
4800058,NYOS CHARTER SCHOOL,48,12301 N LAMAR BLVD,AUSTIN,TX,78753,48,48453,Travis County,30.402255,-97.678514,12420,"Austin-Round Rock, TX",1,N,N,N,N,4810,48050,48014,2017-2018,11,0.0,1,11
4800059,POSITIVE SOLUTIONS CHARTER SCHOOL,48,1325 N FLORES STE 100,SAN ANTONIO,TX,78212,48,48029,Bexar County,29.4388,-98.503311,41700,"San Antonio-New Braunfels, TX",1,N,N,N,N,4835,48123,48026,2017-2018,11,0.0,1,11
4800061,NEW FRONTIERS PUBLIC SCHOOLS INC,48,138 FAIR AVE,SAN ANTONIO,TX,78223,48,48029,Bexar County,29.38376,-98.476501,41700,"San Antonio-New Braunfels, TX",1,N,N,N,N,4835,48119,48026,2017-2018,11,0.0,1,11
4800062,SCHOOL OF EXCELLENCE IN EDUCATION,48,1826 BASSE RD,SAN ANTONIO,TX,78213,48,48029,Bexar County,29.488307,-98.513986,41700,"San Antonio-New Braunfels, TX",1,N,N,N,N,4820,48123,48026,2017-2018,11,0.0,1,11
4800063,SOUTHWEST PREPARATORY SCHOOL,48,1258 AUSTIN HWY,SAN ANTONIO,TX,78209,48,48029,Bexar County,29.488719,-98.443171,41700,"San Antonio-New Braunfels, TX",1,N,N,N,N,4821,48121,48025,2017-2018,11,16.38,2,"11, 41"
4800064,CHAPARRAL STAR ACADEMY,48,14046 SUMMIT DR,AUSTIN,TX,78728,48,48453,Travis County,30.43798,-97.691775,12420,"Austin-Round Rock, TX",1,N,N,N,N,4817,48050,48014,2017-2018,21,0.0,1,21
4800065,HORIZON MONTESSORI PUBLIC SCHOOLS,48,2402 E BUSINESS HWY 83,WESLACO,TX,78596,48,48215,Hidalgo County,26.154818,-97.967102,32580,"McAllen-Edinburg-Mission, TX",1,365,"McAllen-Edinburg, TX",N,N,4834,48039,48027,2017-2018,12,52.3,3,"12, 13, 21"
4800066,TEXAS EMPOWERMENT ACADEMY,48,3613 BLUESTEIN DR,AUSTIN,TX,78721,48,48453,Travis County,30.314585,-97.681422,12420,"Austin-Round Rock, TX",1,N,N,N,N,4825,48046,48014,2017-2018,11,0.0,1,11
4800068,TREETOPS SCHOOL INTERNATIONAL,48,12500 S PIPELINE RD,EULESS,TX,76040,48,48439,Tarrant County,32.821538000000004,-97.106736,19100,"Dallas-Fort Worth-Arlington, TX",1,206,"Dallas-Fort Worth, TX-OK",N,N,4824,48092,48010,2017-2018,21,0.0,1,21
4800069,TWO DIMENSIONS PREPARATORY ACADEMY,48,12121 VETERANS MEMORIAL DR 10,HOUSTON,TX,77067,48,48201,Harris County,29.962258,-95.481009,26420,"Houston-The Woodlands-Sugar Land, TX",1,288,"Houston-The Woodlands, TX",N,N,4818,48126,48015,2017-2018,21,54.29,3,"11, 21, 32"
4800070,UNIVERSAL ACADEMY,48,2616 N MACARTHUR BLVD,IRVING,TX,75062,48,48113,Dallas County,32.842776,-96.95819,19100,"Dallas-Fort Worth-Arlington, TX",1,206,"Dallas-Fort Worth, TX-OK",N,N,4824,48105,48016,2017-2018,21,35.95,3,"11, 12, 21"
4800071,UNIVERSITY OF TEXAS UNIVERSITY CHARTER SCHOOL,48,2200 E 6TH ST,AUSTIN,TX,78702,48,48453,Travis County,30.260299,-97.717419,12420,"Austin-Round Rock, TX",1,N,N,N,N,4835,48051,48014,2017-2018,11,47.2,6,"11, 12, 21, 41, 42, 43"
4800072,NOVA ACADEMY,48,6459 SCYENE RD,DALLAS,TX,75227,48,48113,Dallas County,32.76371,-96.696769,19100,"Dallas-Fort Worth-Arlington, TX",1,206,"Dallas-Fort Worth, TX-OK",N,N,4830,48110,48023,2017-2018,11,0.0,1,11
4800073,THE VARNETT PUBLIC SCHOOL,48,5025 S WILLOW DR,HOUSTON,TX,77035,48,48201,Harris County,29.656845,-95.466074,26420,"Houston-The Woodlands-Sugar Land, TX",1,288,"Houston-The Woodlands, TX",N,N,4809,48146,48013,2017-2018,11,0.0,1,11
4800074,PINEYWOODS COMMUNITY ACADEMY,48,602 S RAGUET,LUFKIN,TX,75904,48,48005,Angelina County,31.332776000000003,-94.732233,31260,"Lufkin, TX",2,N,N,N,N,4801,48057,48003,2017-2018,33,0.0,1,33
4800075,RICHARD MILBURN ALTER HIGH SCHOOL (KILLEEN),48,802 N 2ND STREET BUILDING G,KILLEEN,TX,76541,48,48027,Bell County,31.12531,-97.728351,28660,"Killeen-Temple, TX",1,N,N,N,N,4831,48055,48024,2017-2018,12,51.19,3,"11, 12, 21"
4800076,PRIORITY CHARTER SCHOOLS,48,275 FM 2483,MORGANS POINT RESORT,TX,76513,48,48027,Bell County,31.147538,-97.456087,28660,"Killeen-Temple, TX",1,N,N,N,N,4831,48055,48024,2017-2018,21,68.02,3,"21, 22, 41"
4800077,BEXAR COUNTY ACADEMY,48,1493 SAN ANTONIO DR,SAN ANTONIO,TX,78228,48,48029,Bexar County,29.468283,-98.572135,41700,"San Antonio-New Braunfels, TX",1,N,N,N,N,4820,48125,48026,2017-2018,11,0.0,1,11
4800080,HERITAGE ACADEMY,48,12470 WOMAN HOLLERING RD,SCHERTZ,TX,78154,48,48029,Bexar County,29.5115,-98.2374,41700,"San Antonio-New Braunfels, TX",1,N,N,N,N,4828,48118,48019,2017-2018,33,47.83,2,"21, 33"
4800083,REG 20 EDUCATION SERVICE CENTER,48,1314 HINES AVE,SAN ANTONIO,TX,78208,48,48029,Bexar County,29.441001,-98.446099,41700,"San Antonio-New Braunfels, TX",1,N,N,N,N,4835,48120,48026,2017-2018,11,-2.0,-2,N
4800086,BRAZOS SCHOOL FOR INQUIRY & CREATIVITY,48,410 BETHEL LN,BRYAN,TX,77802,48,48041,Brazos County,30.658163,-96.367585,17780,"College Station-Bryan, TX",1,N,N,N,N,4817,48014,48005,2017-2018,11,41.88,2,"11, 13"
4800089,LUMIN EDUCATION,48,722 TENISON MEMORIAL DR,DALLAS,TX,75223,48,48113,Dallas County,32.807880000000004,-96.737841,19100,"Dallas-Fort Worth-Arlington, TX",1,206,"Dallas-Fort Worth, TX-OK",N,N,4830,48100,48002,2017-2018,11,0.0,1,11
4800090,ACADEMY OF DALLAS,48,1030 OAK PARK,DALLAS,TX,75232,48,48113,Dallas County,32.687938,-96.839013,19100,"Dallas-Fort Worth-Arlington, TX",1,206,"Dallas-Fort Worth, TX-OK",N,N,4830,48111,48023,2017-2018,11,0.0,1,11
4800092,TRINITY BASIN PREPARATORY,48,400 S ZANG STE 700,DALLAS,TX,75208,48,48113,Dallas County,32.7418,-96.8245,19100,"Dallas-Fort Worth-Arlington, TX",1,206,"Dallas-Fort Worth, TX-OK",N,N,4833,48104,48023,2017-2018,11,0.0,1,11
4800093,ACADEMY FOR ACADEMIC EXCELLENCE,48,1673 TERRE COLONY COURT,DALLAS,TX,75212,48,48113,Dallas County,32.771583,-96.868992,19100,"Dallas-Fort Worth-Arlington, TX",1,206,"Dallas-Fort Worth, TX-OK",N,N,4833,48103,48023,2017-2018,11,23.99,2,"11, 41"
4800095,A W BROWN LEADERSHIP ACADEMY,48,5701 RED BIRD CTR DR,DALLAS,TX,75237,48,48113,Dallas County,32.677822,-96.882147,19100,"Dallas-Fort Worth-Arlington, TX",1,206,"Dallas-Fort Worth, TX-OK",N,N,4830,48111,48023,2017-2018,11,0.0,1,11
4800096,FOCUS LEARNING ACADEMY,48,2524 W LEDBETTER DR,DALLAS,TX,75233,48,48113,Dallas County,32.69111,-96.859921,19100,"Dallas-Fort Worth-Arlington, TX",1,206,"Dallas-Fort Worth, TX-OK",N,N,4830,48111,48023,2017-2018,11,0.0,1,11
4800098,JEAN MASSIEU ACADEMY,48,823 N CENTER ST,ARLINGTON,TX,76011,48,48439,Tarrant County,32.747512,-97.106272,19100,"Dallas-Fort Worth-Arlington, TX",1,206,"Dallas-Fort Worth, TX-OK",N,N,4833,48093,48009,2017-2018,11,0.0,1,11
4800104,REG 10 EDUCATION SERVICE CENTER,48,400 E SPRING VALLEY RD,RICHARDSON,TX,75081,48,48113,Dallas County,32.94,-96.729,19100,"Dallas-Fort Worth-Arlington, TX",1,206,"Dallas-Fort Worth, TX-OK",N,N,4832,48102,48008,2017-2018,12,-2.0,-2,N
4800105,WAXAHACHIE FAITH FAMILY ACADEMY,48,1620 FALCON DR,DESOTO,TX,75115,48,48113,Dallas County,32.621700000000004,-96.8519,19100,"Dallas-Fort Worth-Arlington, TX",1,206,"Dallas-Fort Worth, TX-OK",N,N,4830,48111,48023,2017-2018,11,11.61,2,"11, 41"
4800106,PASO DEL NORTE ACADEMY CHARTER DISTRICT,48,1599 GEORGE DIETER DR,EL PASO,TX,79936,48,48141,El Paso County,31.750831,-106.302364,21340,"El Paso, TX",1,238,"El Paso-Las Cruces, TX-NM",N,N,4816,48079,48029,2017-2018,11,0.0,1,11
4800107,REG 19 EDUCATION SERVICE CENTER,48,6611 BOEING DR,EL PASO,TX,79925,48,48141,El Paso County,31.79227,-106.396631,21340,"El Paso, TX",1,238,"El Paso-Las Cruces, TX-NM",N,N,4816,48076,48029,2017-2018,11,-2.0,-2,N
4800108,ODYSSEY ACADEMY INC,48,2412 61ST ST,GALVESTON,TX,77551,48,48167,Galveston County,29.275474000000003,-94.830945,26420,"Houston-The Woodlands-Sugar Land, TX",1,288,"Houston-The Woodlands, TX",N,N,4814,48023,48011,2017-2018,31,22.52,2,"21, 31"
4800109,EAST TEXAS CHARTER SCHOOLS,48,2402 ALPINE RD,LONGVIEW,TX,75601,48,48183,Gregg County,32.52018,-94.706697,30980,"Longview, TX",1,346,"Longview-Marshall, TX",N,N,4801,48007,48001,2017-2018,13,0.0,1,13
4800110,REG 7 EDUCATION SERVICE CENTER,48,1909 N LONGVIEW ST,KILGORE,TX,75662,48,48183,Gregg County,32.400647,-94.863012,30980,"Longview, TX",1,346,"Longview-Marshall, TX",N,N,4801,48007,48001,2017-2018,31,-2.0,-2,N
4800113,AMIGOS POR VIDA-FRIENDS FOR LIFE PUB CHTR SCH,48,5503 EL CAMINO DEL REY,HOUSTON,TX,77081,48,48201,Harris County,29.722918,-95.478456,26420,"Houston-The Woodlands-Sugar Land, TX",1,288,"Houston-The Woodlands, TX",N,N,4807,48137,48013,2017-2018,11,0.0,1,11
4800115,HOUSTON HEIGHTS HIGH SCHOOL,48,1125 LAWRENCE DR,HOUSTON,TX,77008,48,48201,Harris County,29.79097,-95.40705,26420,"Houston-The Woodlands-Sugar Land, TX",1,288,"Houston-The Woodlands, TX",N,N,4802,48148,48015,2017-2018,11,0.0,1,11
4800118,HOUSTON GATEWAY ACADEMY INC,48,3400 EVERGREEN DR,HOUSTON,TX,77087,48,48201,Harris County,29.69426,-95.293462,26420,"Houston-The Woodlands-Sugar Land, TX",1,288,"Houston-The Woodlands, TX",N,N,4829,48145,48006,2017-2018,11,0.04,2,"11, 21"
4800119,HOUSTON HEIGHTS LEARNING ACADEMY INC,48,902 W 8TH ST,HOUSTON,TX,77007,48,48201,Harris County,29.78494,-95.40603,26420,"Houston-The Woodlands-Sugar Land, TX",1,288,"Houston-The Woodlands, TX",N,N,4818,48148,48015,2017-2018,11,0.0,1,11
4800124,CALVIN NELMS CHARTER SCHOOLS,48,20625 CLAY RD,KATY,TX,77449,48,48201,Harris County,29.829186,-95.734286,26420,"Houston-The Woodlands-Sugar Land, TX",1,288,"Houston-The Woodlands, TX",N,N,4810,48132,48007,2017-2018,21,0.0,1,21
4800125,SOUTHWEST SCHOOL,48,3333 BERING DR,HOUSTON,TX,77057,48,48201,Harris County,29.73057,-95.480041,26420,"Houston-The Woodlands-Sugar Land, TX",1,288,"Houston-The Woodlands, TX",N,N,4807,48137,48017,2017-2018,11,18.72,2,"11, 21"
4800127,COMQUEST ACADEMY,48,207 N PEACH ST,TOMBALL,TX,77375,48,48201,Harris County,30.100571,-95.612795,26420,"Houston-The Woodlands-Sugar Land, TX",1,288,"Houston-The Woodlands, TX",N,N,4810,48130,48007,2017-2018,21,0.0,1,21
4800130,REG 4 EDUCATION SERVICE CENTER,48,7145 W TIDWELL,HOUSTON,TX,77092,48,48201,Harris County,29.8505,-95.4977,26420,"Houston-The Woodlands-Sugar Land, TX",1,288,"Houston-The Woodlands, TX",N,N,4818,48139,48015,2017-2018,11,-2.0,-2,N
4800132,KATHERINE ANNE PORTER SCHOOL,48,515 FM 2325,WIMBERLEY,TX,78676,48,48209,Hays County,30.002943,-98.106904,12420,"Austin-Round Rock, TX",1,N,N,N,N,4825,48045,48025,2017-2018,32,0.0,1,32
4800133,MIDVALLEY ACADEMY CHARTER DISTRICT,48,201 N 17TH ST,MCALLEN,TX,78501,48,48215,Hidalgo County,26.20619,-98.237791,32580,"McAllen-Edinburg-Mission, TX",1,365,"McAllen-Edinburg, TX",N,N,4815,48036,48020,2017-2018,22,61.82,3,"12, 21, 22"
4800136,REG 1 EDUCATION SERVICE CENTER,48,1900 W SCHUNIOR,EDINBURG,TX,78541,48,48215,Hidalgo County,26.311400000000003,-98.182,32580,"McAllen-Edinburg-Mission, TX",1,365,"McAllen-Edinburg, TX",N,N,4815,48040,48020,2017-2018,13,-2.0,-2,N
4800139,TEKOA ACADEMY OF ACCELERATED STUDIES STEM SCHOOL,48,326 THOMAS BLVD,PORT ARTHUR,TX,77640,48,48245,Jefferson County,29.875291,-93.942768,13140,"Beaumont-Port Arthur, TX",1,N,N,N,N,4814,48022,48004,2017-2018,13,23.5,2,"13, 22"
4800141,RISE ACADEMY,48,207 N MARTIN LUTHER KING BLVD,LUBBOCK,TX,79403,48,48303,Lubbock County,33.601128,-101.819163,31180,"Lubbock, TX",1,352,"Lubbock-Levelland, TX",N,N,4819,48084,48028,2017-2018,11,0.0,1,11
4800142,SOUTH PLAINS ACADEMY CHARTER DISTRICT,48,4008 AVE R,LUBBOCK,TX,79412,48,48303,Lubbock County,33.556988000000004,-101.85674,31180,"Lubbock, TX",1,352,"Lubbock-Levelland, TX",N,N,4819,48084,48028,2017-2018,11,0.0,1,11
4800144,REG 17 EDUCATION SERVICE CENTER,48,1111 W LOOP 289,LUBBOCK,TX,79416,48,48303,Lubbock County,33.582536000000005,-101.94063,31180,"Lubbock, TX",1,352,"Lubbock-Levelland, TX",N,N,4819,48084,48028,2017-2018,11,-2.0,-2,N
4800146,REG 12 EDUCATION SERVICE CENTER,48,2101 W LOOP 340,WACO,TX,76712,48,48309,McLennan County,31.4987,-97.1667,47380,"Waco, TX",1,N,N,N,N,4817,48056,48022,2017-2018,12,-2.0,-2,N
4800148,MIDLAND ACADEMY CHARTER SCHOOL,48,500 N BAIRD,MIDLAND,TX,79701,48,48329,Midland County,32.00217,-102.0726,33260,"Midland, TX",1,372,"Midland-Odessa, TX",N,N,4811,48082,48031,2017-2018,12,0.0,1,12
4800150,REG 18 EDUCATION SERVICE CENTER,48,2811 LAFORCE BLVD,MIDLAND,TX,79706,48,48329,Midland County,31.9346,-102.2112,33260,"Midland, TX",1,372,"Midland-Odessa, TX",N,N,4811,48082,48031,2017-2018,41,-2.0,-2,N
4800151,TEXAS SERENITY ACADEMY,48,262 N SAM HOUSTON PKWY E STE 140,HOUSTON,TX,77060,48,48201,Harris County,29.94,-95.402,26420,"Houston-The Woodlands-Sugar Land, TX",1,288,"Houston-The Woodlands, TX",N,N,4829,48141,48006,2017-2018,11,0.0,1,11
4800154,REG 2 EDUCATION SERVICE CENTER,48,209 N WATER ST,CORPUS CHRISTI,TX,78401,48,48355,Nueces County,27.793,-97.3938,18580,"Corpus Christi, TX",1,204,"Corpus Christi-Kingsville-Alice, TX",N,N,4827,48034,48020,2017-2018,11,-2.0,-2,N
4800155,REG 5 EDUCATION SERVICE CENTER,48,350 PINE STREET STE 500,BEAUMONT,TX,77701,48,48245,Jefferson County,30.08526,-94.097681,13140,"Beaumont-Port Arthur, TX",1,N,N,N,N,4814,48022,48004,2017-2018,12,-2.0,-2,N
4800156,REG 16 EDUCATION SERVICE CENTER,48,5800 BELL ST,AMARILLO,TX,79109,48,48381,Randall County,35.1539,-101.9008,11100,"Amarillo, TX",1,108,"Amarillo-Borger, TX",N,N,4813,48086,48031,2017-2018,12,-2.0,-2,N
4800158,ARLINGTON CLASSICS ACADEMY,48,5206 S BOWEN,ARLINGTON,TX,76017,48,48439,Tarrant County,32.661993,-97.149914,19100,"Dallas-Fort Worth-Arlington, TX",1,206,"Dallas-Fort Worth, TX-OK",N,N,4806,48094,48010,2017-2018,21,31.12,2,"11, 21"
4800159,ERATH EXCELS ACADEMY INC,48,680 PEACH ORCHARD RD,STEPHENVILLE,TX,76401,48,48143,Erath County,32.193071,-98.253289,44500,"Stephenville, TX",2,N,N,N,N,4825,48059,48030,2017-2018,41,41.74,2,"31, 41"
4800162,REG 11 EDUCATION SERVICE CENTER,48,1451 S CHERRY LN,WHITE SETTLEMENT,TX,76108,48,48439,Tarrant County,32.74424,-97.447511,19100,"Dallas-Fort Worth-Arlington, TX",1,206,"Dallas-Fort Worth, TX-OK",N,N,4812,48099,48012,2017-2018,21,-2.0,-2,N
4800163,TEXAS COLLEGE PREPARATORY ACADEMIES,48,1800 LAKEWAY DR STE 100,LEWISVILLE,TX,75057,48,48121,Denton County,33.01911,-96.978211,19100,"Dallas-Fort Worth-Arlington, TX",1,206,"Dallas-Fort Worth, TX-OK",N,N,4826,48065,48012,2017-2018,21,38.71,8,"11, 12, 13, 21, 22, 32, 33, 41"
4800164,REG 14 EDUCATION SERVICE CENTER,48,1850 HWY 351,ABILENE,TX,79601,48,48441,Taylor County,32.481500000000004,-99.6913,10180,"Abilene, TX",1,N,N,N,N,4819,48071,48028,2017-2018,12,-2.0,-2,N
4800165,REG 8 EDUCATION SERVICE CENTER,48,4845 US HWY 271 N,PITTSBURG,TX,75686,48,48063,Camp County,33.067287,-94.964451,N,N,0,N,N,N,N,4804,48005,48001,2017-2018,42,-2.0,-2,N
4800166,REG 15 EDUCATION SERVICE CENTER,48,612 S IRENE ST,SAN ANGELO,TX,76903,48,48451,Tom Green County,31.4569,-100.4174,41660,"San Angelo, TX",1,N,N,N,N,4811,48072,48028,2017-2018,12,-2.0,-2,N
4800169,REG 13 EDUCATION SERVICE CENTER,48,5701 SPRINGDALE RD,AUSTIN,TX,78723,48,48453,Travis County,30.300700000000003,-97.6731,12420,"Austin-Round Rock, TX",1,N,N,N,N,4825,48046,48014,2017-2018,11,-2.0,-2,N
4800171,RANCH ACADEMY,48,3120 VZCR 2318,CANTON,TX,75103,48,48467,Van Zandt County,32.42299,-95.860939,N,N,0,N,N,N,N,4805,48002,48002,2017-2018,42,0.0,1,42
4800172,REG 3 EDUCATION SERVICE CENTER,48,1905 LEARY LN,VICTORIA,TX,77901,48,48469,Victoria County,28.8363,-96.9861,47020,"Victoria, TX",1,544,"Victoria-Port Lavaca, TX",N,N,4827,48030,48018,2017-2018,13,-2.0,-2,N
4800173,REG 6 EDUCATION SERVICE CENTER,48,3332 MONTGOMERY RD,HUNTSVILLE,TX,77340,48,48471,Walker County,30.693869,-95.555395,26660,"Huntsville, TX",2,288,"Houston-The Woodlands, TX",N,N,4808,48018,48005,2017-2018,41,-2.0,-2,N
4800174,GATEWAY ACADEMY CHARTER DISTRICT,48,1600 CLARK BLVD,LAREDO,TX,78043,48,48479,Webb County,27.51621,-99.479851,29700,"Laredo, TX",1,N,N,N,N,4828,48042,48021,2017-2018,11,0.0,1,11
4800176,REG 9 EDUCATION SERVICE CENTER,48,301 LOOP 11,WICHITA FALLS,TX,76306,48,48485,Wichita County,33.9178,-98.5389,48660,"Wichita Falls, TX",1,N,N,N,N,4813,48069,48030,2017-2018,12,-2.0,-2,N
4800177,ST MARY'S ACADEMY CHARTER SCHOOL,48,507 N FILMORE,BEEVILLE,TX,78102,48,48025,Bee County,28.4087,-97.7444,13300,"Beeville, TX",2,N,N,N,N,4834,48043,48021,2017-2018,32,0.0,1,32
4800179,JUBILEE ACADEMIES,48,4434 ROLAND,SAN ANTONIO,TX,78222,48,48029,Bexar County,29.377636000000003,-98.406777,41700,"San Antonio-New Braunfels, TX",1,N,N,N,N,4835,48119,48019,2017-2018,11,50.28,5,"11, 12, 13, 21, 32"
4800184,GATEWAY CHARTER ACADEMY,48,6103 UNIVERSITY HILLS BLVD,DALLAS,TX,75241,48,48113,Dallas County,32.673699,-96.80632,19100,"Dallas-Fort Worth-Arlington, TX",1,206,"Dallas-Fort Worth, TX-OK",N,N,4830,48109,48023,2017-2018,11,0.0,1,11
4800185,ALPHA CHARTER SCHOOL,48,701 W STATE ST,GARLAND,TX,75040,48,48113,Dallas County,32.913584,-96.63931,19100,"Dallas-Fort Worth-Arlington, TX",1,206,"Dallas-Fort Worth, TX-OK",N,N,4832,48112,48016,2017-2018,21,0.0,1,21
4800186,EDUCATION CENTER INTERNATIONAL ACADEMY,48,302 N TOWN E BLVD,SUNNYVALE,TX,75182,48,48113,Dallas County,32.813318,-96.598972,19100,"Dallas-Fort Worth-Arlington, TX",1,206,"Dallas-Fort Worth, TX-OK",N,N,4805,48113,48002,2017-2018,21,0.0,1,21
4800187,NORTH TEXAS COLLEGIATE ACADEMY,48,4601 N 1 35,DENTON,TX,76207,48,48121,Denton County,33.239078,-97.178045,19100,"Dallas-Fort Worth-Arlington, TX",1,206,"Dallas-Fort Worth, TX-OK",N,N,4826,48064,48030,2017-2018,21,33.2,2,"21, 41"
4800190,BEATRICE MAYES INSTITUTE CHARTER SCHOOL,48,5807 CALHOUN,HOUSTON,TX,77021,48,48201,Harris County,29.700115,-95.34572,26420,"Houston-The Woodlands-Sugar Land, TX",1,288,"Houston-The Woodlands, TX",N,N,4818,48147,48013,2017-2018,11,0.0,1,11
4800192,ACCELERATED INTERMEDIATE ACADEMY,48,12825 SUMMIT RIDGE,HOUSTON,TX,77085,48,48201,Harris County,29.636817,-95.484953,26420,"Houston-The Woodlands-Sugar Land, TX",1,288,"Houston-The Woodlands, TX",N,N,4809,48131,48013,2017-2018,11,4.06,2,"11, 41"
4800193,ZOE LEARNING ACADEMY,48,3229 HADLEY,HOUSTON,TX,77004,48,48201,Harris County,29.736294,-95.352135,26420,"Houston-The Woodlands-Sugar Land, TX",1,288,"Houston-The Woodlands, TX",N,N,4818,48147,48013,2017-2018,21,50.0,2,"11, 21"
4800194,TEXAS PREPARATORY SCHOOL,48,400 UHLAND RD,SAN MARCOS,TX,78666,48,48209,Hays County,29.89635,-97.916541,12420,"Austin-Round Rock, TX",1,N,N,N,N,4835,48045,48025,2017-2018,23,44.35,2,"11, 23"
4800195,VANGUARD ACADEMY,48,1200 E KELLY ST,PHARR,TX,78577,48,48215,Hidalgo County,26.188901,-98.169888,32580,"McAllen-Edinburg-Mission, TX",1,365,"McAllen-Edinburg, TX",N,N,4815,48036,48027,2017-2018,21,19.16,2,"13, 21"
4800200,SAN ANTONIO SCHOOL FOR INQUIRY & CREATIVITY,48,4616 SAN PEDRO STE 104,SAN ANTONIO,TX,78212,48,48029,Bexar County,29.476370000000003,-98.498771,41700,"San Antonio-New Braunfels, TX",1,N,N,N,N,4820,48123,48026,2017-2018,11,0.0,1,11
4800201,NOVA ACADEMY (SOUTHEAST),48,2800 PRICHARD,DALLAS,TX,75227,48,48113,Dallas County,32.76281,-96.687672,19100,"Dallas-Fort Worth-Arlington, TX",1,206,"Dallas-Fort Worth, TX-OK",N,N,4830,48110,48023,2017-2018,11,11.42,2,"11, 21"
4800202,WINFREE ACADEMY CHARTER SCHOOLS,48,1555 VALWOOD PKWY STE 160,CARROLLTON,TX,75006,48,48113,Dallas County,32.937518000000004,-96.921924,19100,"Dallas-Fort Worth-Arlington, TX",1,206,"Dallas-Fort Worth, TX-OK",N,N,4824,48115,48016,2017-2018,21,43.65,3,"11, 12, 21"
4800203,A+ ACADEMY,48,8225 BRUTON RD,DALLAS,TX,75217,48,48113,Dallas County,32.7488,-96.6748,19100,"Dallas-Fort Worth-Arlington, TX",1,206,"Dallas-Fort Worth, TX-OK",N,N,4830,48110,48023,2017-2018,11,0.0,1,11
4800204,INSPIRED VISION ACADEMY,48,8225 BRUTON RD,DALLAS,TX,75217,48,48113,Dallas County,32.74911,-96.678941,19100,"Dallas-Fort Worth-Arlington, TX",1,206,"Dallas-Fort Worth, TX-OK",N,N,4830,48110,48023,2017-2018,11,0.0,1,11
4800205,EL PASO ACADEMY,48,11000 ARGAL CT,EL PASO,TX,79935,48,48141,El Paso County,31.751626,-106.329135,21340,"El Paso, TX",1,238,"El Paso-Las Cruces, TX-NM",N,N,4816,48079,48029,2017-2018,11,0.0,1,11
4800207,PREMIER HIGH SCHOOLS,48,1301 WATERS RIDGE DR,LEWISVILLE,TX,75057,48,48121,Denton County,33.025980000000004,-96.975031,19100,"Dallas-Fort Worth-Arlington, TX",1,206,"Dallas-Fort Worth, TX-OK",N,N,4826,48065,48012,2017-2018,21,40.89,7,"11, 12, 13, 21, 32, 33, 42"
4800209,YES PREP PUBLIC SCHOOLS INC,48,5515 S LOOP E FREEWAY STE 8,HOUSTON,TX,77033,48,48201,Harris County,29.68841,-95.336201,26420,"Houston-The Woodlands-Sugar Land, TX",1,288,"Houston-The Woodlands, TX",N,N,4818,48147,48013,2017-2018,11,17.44,2,"11, 21"
4800210,HARMONY SCIENCE ACADEMY,48,14100 SOUTHWEST FRWY,SUGARLAND,TX,77478,48,48157,Fort Bend County,29.661036000000003,-95.617809,26420,"Houston-The Woodlands-Sugar Land, TX",1,288,"Houston-The Woodlands, TX",N,N,4822,48027,48017,2017-2018,11,0.0,1,11
4800211,IDEA PUBLIC SCHOOLS,48,2115 W PIKE BLVD,WESLACO,TX,78596,48,48215,Hidalgo County,26.16958,-98.010441,32580,"McAllen-Edinburg-Mission, TX",1,365,"McAllen-Edinburg, TX",N,N,4815,48039,48027,2017-2018,11,71.85,6,"11, 12, 13, 21, 22, 41"
4800213,PANOLA CHARTER SCHOOL,48,448 W PANOLA ST,CARTHAGE,TX,75633,48,48365,Panola County,32.156517,-94.34506,N,N,0,N,N,N,N,4801,48009,48001,2017-2018,32,18.37,2,"32, 41"
4800214,BRAZOS RIVER CHARTER SCHOOL,48,FM 200 AND FM 199,NEMO,TX,76070,48,48425,Somervell County,32.259685000000005,-97.647834,19100,"Dallas-Fort Worth-Arlington, TX",1,206,"Dallas-Fort Worth, TX-OK",N,N,4825,48059,48022,2017-2018,42,0.0,1,42
4800221,EHRHART SCHOOL,48,3380 FANNIN ST,BEAUMONT,TX,77701,48,48245,Jefferson County,30.072313,-94.125127,13140,"Beaumont-Port Arthur, TX",1,N,N,N,N,4814,48022,48004,2017-2018,12,0.0,1,12
4800227,BIG SPRINGS CHARTER SCHOOL,48,10664 N US HWY 83,LEAKY,TX,78873,48,48385,Real County,29.829004,-99.672054,N,N,0,N,N,N,N,4821,48053,48019,2017-2018,43,44.64,2,"41, 43"
4800231,FORT WORTH ACADEMY OF FINE ARTS,48,3901 S HULEN ST,FORT WORTH,TX,76109,48,48439,Tarrant County,32.690944,-97.393319,19100,"Dallas-Fort Worth-Arlington, TX",1,206,"Dallas-Fort Worth, TX-OK",N,N,4812,48097,48010,2017-2018,11,0.0,1,11
4800232,CEDARS INTERNATIONAL ACADEMY,48,8416 N IH 35,AUSTIN,TX,78753,48,48453,Travis County,30.348235000000003,-97.695308,12420,"Austin-Round Rock, TX",1,N,N,N,N,4835,48046,48014,2017-2018,11,0.0,1,11
4800235,ORENDA CHARTER SCHOOL,48,2951 WILLIAMS DR,GEORGETOWN,TX,78628,48,48491,Williamson County,30.663109,-97.690338,12420,"Austin-Round Rock, TX",1,N,N,N,N,4831,48020,48005,2017-2018,41,24.29,5,"21, 23, 32, 41, 43"
4800236,EVOLUTION ACADEMY CHARTER SCHOOL,48,1101 S SHERMAN ST,RICHARDSON,TX,75081,48,48113,Dallas County,32.93577,-96.742011,19100,"Dallas-Fort Worth-Arlington, TX",1,206,"Dallas-Fort Worth, TX-OK",N,N,4832,48102,48008,2017-2018,12,35.72,2,"12, 21"
4800237,GOLDEN RULE CHARTER SCHOOL,48,2602 W ILLINOIS AVE,DALLAS,TX,75233,48,48113,Dallas County,32.720026000000004,-96.863015,19100,"Dallas-Fort Worth-Arlington, TX",1,206,"Dallas-Fort Worth, TX-OK",N,N,4833,48104,48023,2017-2018,11,31.58,2,"11, 21"
4800240,PROMISE COMMUNITY SCHOOL,48,4500 BISSONNET,BELLAIRE,TX,77401,48,48201,Harris County,29.716009,-95.451532,26420,"Houston-The Woodlands-Sugar Land, TX",1,288,"Houston-The Woodlands, TX",N,N,4807,48134,48017,2017-2018,11,0.0,1,11
4800241,HARMONY SCIENCE ACADEMY (AUSTIN),48,930 E RUNDBERG LN,AUSTIN,TX,78753,48,48453,Travis County,30.357075,-97.684723,12420,"Austin-Round Rock, TX",1,N,N,N,N,4810,48050,48014,2017-2018,11,11.35,2,"11, 21"
4800246,LIGHTHOUSE CHARTER SCHOOL,48,2718 FRONTIER DR,SAN ANTONIO,TX,78227,48,48029,Bexar County,29.402646,-98.636399,41700,"San Antonio-New Braunfels, TX",1,N,N,N,N,4820,48124,48026,2017-2018,11,0.0,1,11
4800248,ST ANTHONY SCHOOL,48,3732 MYRTLE ST,DALLAS,TX,75215,48,48113,Dallas County,32.762838,-96.762157,19100,"Dallas-Fort Worth-Arlington, TX",1,206,"Dallas-Fort Worth, TX-OK",N,N,4830,48100,48023,2017-2018,11,0.0,1,11
4800251,UNIVERSITY OF TEXAS ELEMENTARY CHARTER SCHOOL,48,2200 E 6TH ST,AUSTIN,TX,78702,48,48453,Travis County,30.260354,-97.718125,12420,"Austin-Round Rock, TX",1,N,N,N,N,4835,48051,48014,2017-2018,11,0.0,1,11
4800252,TEXAS SCH FOR THE BLIND & VISUALLY IMPAIRED,48,1100 W 45TH ST,AUSTIN,TX,78756,48,48453,Travis County,30.315321,-97.73911,12420,"Austin-Round Rock, TX",1,N,N,N,N,4810,48049,48014,2017-2018,11,0.0,1,11
4800253,TEXAS SCH FOR THE DEAF,48,1102 S CONGRESS AVE,AUSTIN,TX,78704,48,48453,Travis County,30.254616,-97.749017,12420,"Austin-Round Rock, TX",1,N,N,N,N,4821,48051,48014,2017-2018,11,0.0,1,11
4800254,WESTLAKE ACADEMY CHARTER SCHOOL,48,2600 J T OTTINGER RD,WESTLAKE,TX,76262,48,48439,Tarrant County,32.985924000000004,-97.212183,19100,"Dallas-Fort Worth-Arlington, TX",1,206,"Dallas-Fort Worth, TX-OK",N,N,4826,48098,48009,2017-2018,41,0.0,1,41
4800255,EAST FORT WORTH MONTESSORI ACADEMY,48,501 OAKLAND BLVD,FORT WORTH,TX,76103,48,48439,Tarrant County,32.766287,-97.257691,19100,"Dallas-Fort Worth-Arlington, TX",1,206,"Dallas-Fort Worth, TX-OK",N,N,4833,48095,48009,2017-2018,11,0.0,1,11
4800257,KIPP SAN ANTONIO,48,735 FREDERICKSBURG RD,SAN ANTONIO,TX,78201,48,48029,Bexar County,29.45006,-98.512391,41700,"San Antonio-New Braunfels, TX",1,N,N,N,N,4835,48123,48026,2017-2018,11,0.0,1,11
4800258,SCHOOL OF SCIENCE AND TECHNOLOGY,48,1450 NE LOOP 410,SAN ANTONIO,TX,78209,48,48029,Bexar County,29.515274,-98.443693,41700,"San Antonio-New Braunfels, TX",1,N,N,N,N,4821,48121,48025,2017-2018,11,0.0,1,11
4800259,TRINITY CHARTER SCHOOL,48,8305 CROSS PARK DR,AUSTIN,TX,78754,48,48453,Travis County,30.3356,-97.6697,12420,"Austin-Round Rock, TX",1,N,N,N,N,4810,48046,48014,2017-2018,41,62.82,5,"11, 12, 21, 41, 42"
4800260,KIPP DALLAS-FORT WORTH,48,1545 S EWING AVE,DALLAS,TX,75216,48,48113,Dallas County,32.728282,-96.81292,19100,"Dallas-Fort Worth-Arlington, TX",1,206,"Dallas-Fort Worth, TX-OK",N,N,4830,48100,48023,2017-2018,11,0.0,1,11
4800261,HARRIS COUNTY DEPT OF ED,48,6300 IRVINGTON BLVD,HOUSTON,TX,77022,48,48201,Harris County,29.815722,-95.361018,26420,"Houston-The Woodlands-Sugar Land, TX",1,288,"Houston-The Woodlands, TX",N,N,4829,48148,48006,2017-2018,21,50.0,2,"11, 21"
4800262,MEYERPARK ELEMENTARY,48,13663 MAIN ST,HOUSTON,TX,77035,48,48201,Harris County,29.638635,-95.484962,26420,"Houston-The Woodlands-Sugar Land, TX",1,288,"Houston-The Woodlands, TX",N,N,4809,48131,48013,2017-2018,11,0.0,1,11
4800263,DRAW ACADEMY,48,7914 WESTGLEN DR,HOUSTON,TX,77063,48,48201,Harris County,29.725075,-95.505649,26420,"Houston-The Woodlands-Sugar Land, TX",1,288,"Houston-The Woodlands, TX",N,N,4807,48137,48017,2017-2018,11,0.0,1,11
4800264,KIPP AUSTIN PUBLIC SCHOOLS INC,48,8509 FM 969 BLDG 513,AUSTIN,TX,78724,48,48453,Travis County,30.272952,-97.636143,12420,"Austin-Round Rock, TX",1,N,N,N,N,4825,48046,48014,2017-2018,11,0.0,1,11
4800265,AUSTIN DISCOVERY SCHOOL,48,9303 FM 969,AUSTIN,TX,78724,48,48453,Travis County,30.267791000000003,-97.635006,12420,"Austin-Round Rock, TX",1,N,N,N,N,4825,48046,48014,2017-2018,11,0.0,1,11
4800266,HARMONY SCIENCE ACAD (SAN ANTONIO),48,8505 LAKESIDE PKWY,SAN ANTONIO,TX,78245,48,48029,Bexar County,29.431342,-98.652973,41700,"San Antonio-New Braunfels, TX",1,N,N,N,N,4823,48124,48026,2017-2018,11,32.86,3,"11, 12, 21"
4800268,BROOKS ACADEMY OF SCIENCE AND ENGINEERING,48,3803 LYSTER RD,SAN ANTONIO,TX,78235,48,48029,Bexar County,29.337993,-98.426639,41700,"San Antonio-New Braunfels, TX",1,N,N,N,N,4835,48119,48019,2017-2018,11,0.0,1,11
4800270,LA ACADEMIA DE ESTRELLAS,48,4680 W KIEST BLVD,DALLAS,TX,75236,48,48113,Dallas County,32.704657000000005,-96.900748,19100,"Dallas-Fort Worth-Arlington, TX",1,206,"Dallas-Fort Worth, TX-OK",N,N,4833,48111,48023,2017-2018,11,0.0,1,11
4800271,RICHLAND COLLEGIATE HIGH SCHOOL,48,12800 ABRAMS RD,DALLAS,TX,75243,48,48113,Dallas County,32.922163000000005,-96.731028,19100,"Dallas-Fort Worth-Arlington, TX",1,206,"Dallas-Fort Worth, TX-OK",N,N,4832,48102,48008,2017-2018,11,0.0,1,11
4800272,HARMONY SCIENCE ACAD (EL PASO),48,9321 W SAM HOUSTON PKWY S,HOUSTON,TX,77099,48,48201,Harris County,29.682133,-95.55849,26420,"Houston-The Woodlands-Sugar Land, TX",1,288,"Houston-The Woodlands, TX",N,N,4809,48131,48013,2017-2018,11,14.09,2,"11, 12"
4800274,HARMONY SCHOOL OF EXCELLENCE,48,7340 N GESSNER DR,HOUSTON,TX,77040,48,48201,Harris County,29.881571,-95.540061,26420,"Houston-The Woodlands-Sugar Land, TX",1,288,"Houston-The Woodlands, TX",N,N,4802,48135,48015,2017-2018,11,24.97,3,"11, 13, 21"
4800275,STEP CHARTER SCHOOL,48,11250 S WILCREST,HOUSTON,TX,77099,48,48201,Harris County,29.657157,-95.571295,26420,"Houston-The Woodlands-Sugar Land, TX",1,288,"Houston-The Woodlands, TX",N,N,4809,48131,48013,2017-2018,11,0.0,1,11
4800278,CROSSTIMBERS ACADEMY,48,242 HARMONY RD,WEATHERFORD,TX,76087,48,48367,Parker County,32.696052,-97.798806,19100,"Dallas-Fort Worth-Arlington, TX",1,206,"Dallas-Fort Worth, TX-OK",N,N,4812,48061,48030,2017-2018,41,0.0,1,41
4800279,CORPUS CHRISTI MONTESSORI SCHOOL,48,822 AYRES ST,CORPUS CHRISTI,TX,78404,48,48355,Nueces County,27.77512,-97.398651,18580,"Corpus Christi, TX",1,204,"Corpus Christi-Kingsville-Alice, TX",N,N,4827,48032,48020,2017-2018,11,0.0,1,11
4800283,THE RHODES SCHOOL,48,12822 ROBERT E LEE RD,HOUSTON,TX,77044,48,48201,Harris County,29.842062,-95.202623,26420,"Houston-The Woodlands-Sugar Land, TX",1,288,"Houston-The Woodlands, TX",N,N,4829,48142,48006,2017-2018,21,9.18,2,"11, 21"
4800284,AMBASSADORS PREPARATORY ACADEMY,48,5001 AVE U,GALVESTON,TX,77551,48,48167,Galveston County,29.274503000000003,-94.817872,26420,"Houston-The Woodlands-Sugar Land, TX",1,288,"Houston-The Woodlands, TX",N,N,4814,48023,48011,2017-2018,31,0.0,1,31
4800286,LA FE PREPARATORY SCHOOL,48,616 E FATHER RAHM AVE,EL PASO,TX,79901,48,48141,El Paso County,31.753673000000003,-106.4817,21340,"El Paso, TX",1,238,"El Paso-Las Cruces, TX-NM",N,N,4816,48077,48029,2017-2018,11,0.0,1,11
4800287,TEXAS SCHOOL OF THE ARTS,48,3901 S HULEN ST,FORT WORTH,TX,76109,48,48439,Tarrant County,32.69099,-97.393221,19100,"Dallas-Fort Worth-Arlington, TX",1,206,"Dallas-Fort Worth, TX-OK",N,N,4812,48097,48010,2017-2018,21,0.0,1,21
4800288,CITYSCAPE SCHOOLS,48,6211 E GRAND AVE,DALLAS,TX,75223,48,48113,Dallas County,32.798500000000004,-96.742591,19100,"Dallas-Fort Worth-Arlington, TX",1,206,"Dallas-Fort Worth, TX-OK",N,N,4830,48108,48023,2017-2018,11,0.0,1,11
4800289,SEASHORE CHARTER SCHOOLS,48,15801 S PADRE ISLAND DR,CORPUS CHRISTI,TX,78418,48,48355,Nueces County,27.588011,-97.224634,18580,"Corpus Christi, TX",1,204,"Corpus Christi-Kingsville-Alice, TX",N,N,4827,48032,48020,2017-2018,11,0.0,1,11
4800291,WINDHAM SCHOOL DISTRICT,48,802 FM 2821 W,HUNTSVILLE,TX,77320,48,48471,Walker County,30.737481,-95.574331,26660,"Huntsville, TX",2,288,"Houston-The Woodlands, TX",N,N,4808,48018,48005,2017-2018,32,-2.0,-2,N
4800292,HARMONY SCIENCE ACAD (WACO),48,1900 N VALLEY MILLS DR,WACO,TX,76710,48,48309,McLennan County,31.531468,-97.201697,47380,"Waco, TX",1,N,N,N,N,4817,48056,48022,2017-2018,11,52.95,4,"11, 12, 21, 22"
4801394,VISTA DEL FUTURO CHARTER SCHOOL,48,1671 BOB HOPE DR,EL PASO,TX,79936,48,48141,El Paso County,31.745864,-106.271861,21340,"El Paso, TX",1,238,"El Paso-Las Cruces, TX-NM",N,N,4816,48075,48029,2017-2018,11,0.0,1,11
4801395,STEPHEN F AUSTIN STATE UNIVERSITY CHARTER SCHOOL,48,2428 RAGUET ST,NACOGDOCHES,TX,75962,48,48347,Nacogdoches County,31.625802,-94.64684,34860,"Nacogdoches, TX",2,N,N,N,N,4801,48011,48003,2017-2018,33,0.0,1,33
4801400,SCHOOL OF SCIENCE AND TECHNOLOGY DISCOVERY,48,5707 BANDERA RD,LEON VALLEY,TX,78238,48,48029,Bexar County,29.482561,-98.596956,41700,"San Antonio-New Braunfels, TX",1,N,N,N,N,4820,48125,48026,2017-2018,11,28.82,2,"11, 21"
4801404,MEADOWLAND CHARTER DISTRICT,48,216 E BLANCO RD STE 101,BOERNE,TX,78006,48,48259,Kendall County,29.795578000000003,-98.730735,41700,"San Antonio-New Braunfels, TX",1,N,N,N,N,4821,48073,48025,2017-2018,41,0.0,1,41
4801405,HARMONY SCHOOL OF SCIENCE - HOUSTON,48,14100 SOUTHWEST FWY,SUGAR LAND,TX,77478,48,48201,Harris County,29.675799,-95.478991,26420,"Houston-The Woodlands-Sugar Land, TX",1,288,"Houston-The Woodlands, TX",N,N,4807,48134,48017,2017-2018,13,50.87,3,"11, 12, 13"
4801407,CHAPEL HILL ACADEMY,48,4640 SYCAMORE SCHOOL RD,FORT WORTH,TX,76133,48,48439,Tarrant County,32.633967,-97.391925,19100,"Dallas-Fort Worth-Arlington, TX",1,206,"Dallas-Fort Worth, TX-OK",N,N,4812,48097,48010,2017-2018,11,0.0,1,11
4801409,TEXAS LEADERSHIP,48,5687 MELROSE,SAN ANGELO,TX,76901,48,48451,Tom Green County,31.437479,-100.5057,41660,"San Angelo, TX",1,N,N,N,N,4811,48072,48028,2017-2018,12,19.77,2,"11, 12"
4801410,BOB HOPE SCHOOL,48,2849 9TH AVE,PORT ARTHUR,TX,77642,48,48245,Jefferson County,29.915024000000003,-93.931754,13140,"Beaumont-Port Arthur, TX",1,N,N,N,N,4814,48021,48004,2017-2018,13,0.0,1,13
4801412,HENRY FORD ACADEMY ALAMEDA SCHOOL FOR ART + DESIGN,48,318 W HOUSTON,SAN ANTONIO,TX,78205,48,48029,Bexar County,29.426212,-98.49653,41700,"San Antonio-New Braunfels, TX",1,N,N,N,N,4835,48123,48026,2017-2018,11,0.0,1,11
4801414,EAST AUSTIN COLLEGE PREP,48,6002 JAIN LN,AUSTIN,TX,78721,48,48453,Travis County,30.261069000000003,-97.68248,12420,"Austin-Round Rock, TX",1,N,N,N,N,4835,48051,48014,2017-2018,11,0.0,1,11
4801415,MANARA ACADEMY,48,8201 TRISTAR DR,IRVING,TX,75063,48,48113,Dallas County,32.91921,-97.005521,19100,"Dallas-Fort Worth-Arlington, TX",1,206,"Dallas-Fort Worth, TX-OK",N,N,4824,48115,48016,2017-2018,12,27.65,2,"11, 12"
4801416,ARROW ACADEMY,48,2423 EARL RUDDER FWY S STE 200,COLLEGE STATION,TX,77845,48,48041,Brazos County,30.621423,-96.296529,17780,"College Station-Bryan, TX",1,N,N,N,N,4817,48012,48005,2017-2018,11,51.53,3,"11, 13, 21"
4801417,COMPASS ACADEMY CHARTER SCHOOL,48,5530 BILLY HEXT,ODESSA,TX,79765,48,48135,Ector County,31.914603,-102.304645,36220,"Odessa, TX",1,372,"Midland-Odessa, TX",N,N,4811,48081,48031,2017-2018,12,0.0,1,12
4801418,THE LAWSON ACADEMY,48,5052 SCOTT ST,HOUSTON,TX,77004,48,48201,Harris County,29.712487,-95.355822,26420,"Houston-The Woodlands-Sugar Land, TX",1,288,"Houston-The Woodlands, TX",N,N,4818,48147,48013,2017-2018,11,0.0,1,11
4801420,LEADERSHIP PREP SCHOOL,48,8500 TEEL PKWY,FRISCO,TX,75034,48,48121,Denton County,33.148479,-96.862927,19100,"Dallas-Fort Worth-Arlington, TX",1,206,"Dallas-Fort Worth, TX-OK",N,N,4826,48106,48012,2017-2018,21,0.0,1,21
4801421,NEWMAN INTERNATIONAL ACADEMY OF ARLINGTON,48,2011 S FIELDER RD,ARLINGTON,TX,76013,48,48439,Tarrant County,32.709709000000004,-97.130199,19100,"Dallas-Fort Worth-Arlington, TX",1,206,"Dallas-Fort Worth, TX-OK",N,N,4806,48094,48009,2017-2018,11,47.83,3,"11, 21, 41"
4801422,MERIDIAN WORLD SCHOOL LLC,48,2555 N IH 35,ROUND ROCK,TX,78664,48,48491,Williamson County,30.53768,-97.69071,12420,"Austin-Round Rock, TX",1,N,N,N,N,4831,48052,48005,2017-2018,12,0.0,1,12
4801424,GLOBAL LEARNING VILLAGE,48,3015 N MACGREGOR WAY,HOUSTON,TX,77004,48,48201,Harris County,29.71496,-95.372321,26420,"Houston-The Woodlands-Sugar Land, TX",1,288,"Houston-The Woodlands, TX",N,N,4818,48147,48013,2017-2018,11,0.0,1,11
4801425,UME PREPARATORY ACADEMY,48,3838 SPUR 408,DALLAS,TX,75236,48,48113,Dallas County,32.695362,-96.93463,19100,"Dallas-Fort Worth-Arlington, TX",1,206,"Dallas-Fort Worth, TX-OK",N,N,4830,48111,48023,2017-2018,41,27.85,2,"21, 41"
4801427,UT TYLER INNOVATION ACADEMY,48,3900 UNIVERSITY BLVD,TYLER,TX,75799,48,48423,Smith County,32.311701,-95.241173,46340,"Tyler, TX",1,540,"Tyler-Jacksonville, TX",N,N,4801,48006,48001,2017-2018,12,59.86,3,"12, 13, 32"
4801428,LEGACY PREPARATORY,48,8510 MILITARY PKWY,DALLAS,TX,75227,48,48113,Dallas County,32.76747,-96.673081,19100,"Dallas-Fort Worth-Arlington, TX",1,206,"Dallas-Fort Worth, TX-OK",N,N,4830,48110,48023,2017-2018,21,24.46,2,"11, 21"
4801429,IMAGINE INTERNATIONAL ACADEMY OF NORTH TEXAS,48,2860 VIRGINIA PRKWAY,MCKINNEY,TX,75071,48,48085,Collin County,33.20069,-96.656471,19100,"Dallas-Fort Worth-Arlington, TX",1,206,"Dallas-Fort Worth, TX-OK",N,N,4803,48070,48008,2017-2018,22,0.0,1,22
4801431,AUSTIN ACHIEVE PUBLIC SCHOOLS,48,5908 MANOR RD,AUSTIN,TX,78723,48,48453,Travis County,30.307615,-97.67991,12420,"Austin-Round Rock, TX",1,N,N,N,N,4825,48046,48014,2017-2018,11,0.0,1,11
4801432,TEXAS JUVENILE JUSTICE DEPARTMENT,48,11209 METRIC BLVD BLDG H STE A,AUSTIN,TX,78758,48,48453,Travis County,30.39109,-97.708151,12420,"Austin-Round Rock, TX",1,N,N,N,N,4810,48049,48014,2017-2018,33,59.52,4,"13, 32, 33, 42"
4801433,EXCELLENCE IN LEADERSHIP ACADEMY,48,915 W INTERSTATE HWY 2,MISSION,TX,78572,48,48215,Hidalgo County,26.203134,-98.338887,32580,"McAllen-Edinburg-Mission, TX",1,365,"McAllen-Edinburg, TX",N,N,4828,48036,48020,2017-2018,13,0.0,1,13
4801434,THE PRO-VISION ACADEMY,48,4590 WILMINGTON ST,HOUSTON,TX,77051,48,48201,Harris County,29.65455,-95.359991,26420,"Houston-The Woodlands-Sugar Land, TX",1,288,"Houston-The Woodlands, TX",N,N,4809,48146,48013,2017-2018,11,0.0,1,11
4801435,ELEANOR KOLITZ HEBREW LANGUAGE ACADEMY,48,12500 NW MILITARY HWY STE 150,SAN ANTONIO,TX,78231,48,48029,Bexar County,29.5571,-98.533661,41700,"San Antonio-New Braunfels, TX",1,N,N,N,N,4821,48123,48025,2017-2018,11,0.0,1,11
4801436,VILLAGE TECH SCHOOLS,48,402 W DANIELDALE RD,DUNCANVILLE,TX,75137,48,48113,Dallas County,32.631648,-96.916225,19100,"Dallas-Fort Worth-Arlington, TX",1,206,"Dallas-Fort Worth, TX-OK",N,N,4830,48111,48023,2017-2018,21,0.0,1,21
4801437,C O R E ACADEMY,48,12707 CULLEN BLVD,HOUSTON,TX,77047,48,48201,Harris County,29.62607,-95.354451,26420,"Houston-The Woodlands-Sugar Land, TX",1,288,"Houston-The Woodlands, TX",N,N,4809,48131,48013,2017-2018,11,0.0,1,11
4801438,BASIS TEXAS,48,8519 FLOYD CURL DR,SAN ANTONIO,TX,78240,48,48029,Bexar County,29.520545,-98.590166,41700,"San Antonio-New Braunfels, TX",1,N,N,N,N,4821,48116,48026,2017-2018,11,41.92,2,"11, 21"
4801439,EL PASO LEADERSHIP ACADEMY,48,1918 TEXAS AVE,EL PASO,TX,79901,48,48141,El Paso County,31.7704,-106.468691,21340,"El Paso, TX",1,238,"El Paso-Las Cruces, TX-NM",N,N,4816,48077,48029,2017-2018,11,0.0,1,11
4801440,INTERNATIONAL LEADERSHIP OF TEXAS (ILT),48,1820 N GLENVILLE DR STE 100,RICHARDSON,TX,75081,48,48113,Dallas County,32.9729,-96.705632,19100,"Dallas-Fort Worth-Arlington, TX",1,206,"Dallas-Fort Worth, TX-OK",N,N,4832,48112,48008,2017-2018,21,33.68,2,"11, 21"
4801441,GREAT HEARTS TEXAS,48,824 BROADWAY STE 101,SAN ANTONIO,TX,78215,48,48029,Bexar County,29.432794,-98.482323,41700,"San Antonio-New Braunfels, TX",1,N,N,N,N,4835,48123,48026,2017-2018,11,29.46,2,"11, 12"
4801442,MONTESSORI FOR ALL,48,5100 PECAN BROOK,AUSTIN,TX,78724,48,48453,Travis County,30.317929,-97.659252,12420,"Austin-Round Rock, TX",1,N,N,N,N,4835,48046,48014,2017-2018,11,0.0,1,11
4801443,UTPB STEM ACADEMY,48,4901 E UNIVERSITY,ODESSA,TX,79762,48,48135,Ector County,31.884738,-102.320613,36220,"Odessa, TX",1,372,"Midland-Odessa, TX",N,N,4811,48081,48031,2017-2018,12,0.0,1,12
4801444,CARPE DIEM SCHOOLS,48,517 SOLEDAD ST,SAN ANTONIO,TX,78205,48,48029,Bexar County,29.4307,-98.493591,41700,"San Antonio-New Braunfels, TX",1,N,N,N,N,4835,48123,48026,2017-2018,11,0.0,1,11
4801445,TRINITY ENVIRONMENTAL ACADEMY,48,3837 SIMPSON STUART RD,DALLAS,TX,75241,48,48113,Dallas County,32.679884,-96.756251,19100,"Dallas-Fort Worth-Arlington, TX",1,206,"Dallas-Fort Worth, TX-OK",N,N,4830,48110,48023,2017-2018,11,0.0,1,11
4801446,BETA ACADEMY,48,9701 ALMEDA GENOA RD,HOUSTON,TX,77075,48,48201,Harris County,29.628162,-95.244262,26420,"Houston-The Woodlands-Sugar Land, TX",1,288,"Houston-The Woodlands, TX",N,N,4829,48147,48006,2017-2018,11,0.0,1,11
4801447,KI CHARTER ACADEMY,48,120 BERT BROWN RD,SAN MARCOS,TX,78666,48,48209,Hays County,29.898289,-97.928465,12420,"Austin-Round Rock, TX",1,N,N,N,N,4821,48045,48025,2017-2018,23,0.0,1,23
4801448,THE EXCEL CENTER (FOR ADULTS),48,1015 NORWOOD PARK BLVD,AUSTIN,TX,78753,48,48453,Travis County,30.33907,-97.694453,12420,"Austin-Round Rock, TX",1,N,N,N,N,4835,48046,48014,2017-2018,11,0.0,1,11
4801449,THE EXCEL CENTER,48,1015 NORWOOD PARK BLVD,AUSTIN,TX,78753,48,48453,Travis County,30.338968,-97.694507,12420,"Austin-Round Rock, TX",1,N,N,N,N,4835,48046,48014,2017-2018,11,3.71,2,"11, 31"
4801450,HIGH POINT ACADEMY,48,1256 JIM WRIGHT FWY,WHITE SETTLEMENT,TX,76108,48,48439,Tarrant County,32.778614000000005,-97.470514,19100,"Dallas-Fort Worth-Arlington, TX",1,206,"Dallas-Fort Worth, TX-OK",N,N,4812,48099,48012,2017-2018,21,0.0,1,21
4801451,PIONEER TECHNOLOGY & ARTS ACADEMY,48,3200 OATES DR,MESQUITE,TX,75150,48,48113,Dallas County,32.822581,-96.647632,19100,"Dallas-Fort Worth-Arlington, TX",1,206,"Dallas-Fort Worth, TX-OK",N,N,4805,48107,48002,2017-2018,21,28.72,2,"21, 41"
4801452,LONE STAR LANGUAGE ACADEMY,48,5301 DEMOCRACY DR,PLANO,TX,75024,48,48085,Collin County,33.069328,-96.813194,19100,"Dallas-Fort Worth-Arlington, TX",1,206,"Dallas-Fort Worth, TX-OK",N,N,4803,48066,48008,2017-2018,11,0.0,1,11
4801453,A+ UNLIMITED POTENTIAL,48,2700 SOUTHWEST FWY,HOUSTON,TX,77098,48,48201,Harris County,29.73171,-95.420351,26420,"Houston-The Woodlands-Sugar Land, TX",1,288,"Houston-The Woodlands, TX",N,N,4807,48134,48017,2017-2018,11,0.0,1,11
4801454,SAM HOUSTON STATE UNIVERSITY CHARTER SCHOOL,48,22801 ALDINE WESTFIELD RD,SPRING,TX,77373,48,48201,Harris County,30.044092000000003,-95.385261,26420,"Houston-The Woodlands-Sugar Land, TX",1,288,"Houston-The Woodlands, TX",N,N,4818,48150,48007,2017-2018,21,0.0,1,21
4801455,KAUFFMAN LEADERSHIP ACADEMY,48,1108 N ANGLIN,CLEBURNE,TX,76031,48,48251,Johnson County,32.363127,-97.389733,19100,"Dallas-Fort Worth-Arlington, TX",1,206,"Dallas-Fort Worth, TX-OK",N,N,4825,48058,48022,2017-2018,31,0.0,1,31
4801456,TRIVIUM ACADEMY,48,2205 E HEBRON PKWY,CARROLLTON,TX,75010,48,48121,Denton County,33.025690000000004,-96.865858,19100,"Dallas-Fort Worth-Arlington, TX",1,206,"Dallas-Fort Worth, TX-OK",N,N,4824,48065,48012,2017-2018,21,0.0,1,21
4801457,COMPASS ROSE ACADEMY,48,8005 OUTER CIR DR,SAN ANTONIO,TX,78235,48,48029,Bexar County,29.34448,-98.446451,41700,"San Antonio-New Braunfels, TX",1,N,N,N,N,4835,48119,48019,2017-2018,11,0.0,1,11
4801458,GOODWATER MONTESSORI SCHOOL,48,710 STADIUM DR,GEORGETOWN,TX,78626,48,48491,Williamson County,30.669252,-97.654172,12420,"Austin-Round Rock, TX",1,N,N,N,N,4831,48020,48005,2017-2018,21,0.0,1,21
4801459,LEGACY SCHOOL OF SPORT SCIENCES,48,4301 ROSENEATH DR,HOUSTON,TX,77021,48,48201,Harris County,30.074084000000003,-95.394683,26420,"Houston-The Woodlands-Sugar Land, TX",1,288,"Houston-The Woodlands, TX",N,N,4802,48150,48007,2017-2018,21,0.0,1,21
4801460,ETOILE ACADEMY CHARTER SCHOOL,48,230 TC JESTER BLVD APT 242,HOUSTON,TX,77007,48,48201,Harris County,29.709331,-95.500014,26420,"Houston-The Woodlands-Sugar Land, TX",1,288,"Houston-The Woodlands, TX",N,N,4807,48137,48013,2017-2018,11,0.0,1,11
4801461,VALOR PUBLIC SCHOOLS,48,2110 W SLAUGHTER LN 160 139,AUSTIN,TX,78748,48,48453,Travis County,30.179326,-97.779824,12420,"Austin-Round Rock, TX",1,N,N,N,N,4835,48048,48021,2017-2018,11,0.0,1,11
4801462,BRIDGEWAY PREPARATORY ACADEMY,48,4100 ALPHA RD STE 1150,DALLAS,TX,75244,48,48113,Dallas County,32.932001,-96.840073,19100,"Dallas-Fort Worth-Arlington, TX",1,206,"Dallas-Fort Worth, TX-OK",N,N,4824,48115,48016,2017-2018,21,0.0,1,21
4801463,YELLOWSTONE COLLEGE PREPARATORY,48,3000 TRULLEY ST,HOUSTON,TX,77004,48,48201,Harris County,29.737426000000003,-95.355581,26420,"Houston-The Woodlands-Sugar Land, TX",1,288,"Houston-The Woodlands, TX",N,N,4818,48147,48013,2017-2018,11,0.0,1,11
4807350,COLLEGE STATION ISD,48,1812 WELSH AVE,COLLEGE STATION,TX,77840,48,48041,Brazos County,30.592861000000003,-96.321679,17780,"College Station-Bryan, TX",1,N,N,N,N,4817,48014,48005,2017-2018,12,10.17,2,"12, 41"
4807380,ABBOTT ISD,48,219 S FIRST ST,ABBOTT,TX,76621,48,48217,Hill County,31.883393,-97.07685,N,N,0,N,N,N,N,4825,48008,48022,2017-2018,42,0.34,2,"32, 42"
4807410,ABERNATHY ISD,48,505 7TH ST,ABERNATHY,TX,79311,48,48189,Hale County,33.83135,-101.847263,38380,"Plainview, TX",2,N,N,N,N,4819,48088,48028,2017-2018,31,0.26,2,"31, 33"
4807440,ABILENE ISD,48,241 PINE,ABILENE,TX,79601,48,48441,Taylor County,32.450900000000004,-99.7329,10180,"Abilene, TX",1,N,N,N,N,4819,48071,48028,2017-2018,12,3.26,2,"12, 41"
4807470,ACADEMY ISD,48,704 E MAIN ST,LITTLE RIVER,TX,76554,48,48027,Bell County,30.981934000000003,-97.344324,28660,"Killeen-Temple, TX",1,N,N,N,N,4831,48055,48024,2017-2018,41,0.0,1,41
4807500,ADRIAN ISD,48,301 MATADOR DR,ADRIAN,TX,79001,48,48359,Oldham County,35.275432,-102.665172,11100,"Amarillo, TX",1,108,"Amarillo-Borger, TX",N,N,4813,48086,48031,2017-2018,43,0.0,1,43
4807530,AGUA DULCE ISD,48,1 LONGHORN DR,AGUA DULCE,TX,78330,48,48355,Nueces County,27.784884,-97.912488,18580,"Corpus Christi, TX",1,204,"Corpus Christi-Kingsville-Alice, TX",N,N,4827,48034,48020,2017-2018,42,0.0,1,42
4807590,ALAMO HEIGHTS ISD,48,7101 BROADWAY ST,SAN ANTONIO,TX,78209,48,48029,Bexar County,29.49245,-98.466851,41700,"San Antonio-New Braunfels, TX",1,N,N,N,N,4821,48121,48025,2017-2018,11,49.96,2,"11, 21"
4807650,ALBA-GOLDEN ISD,48,1373 CR 2377,ALBA,TX,75410,48,48499,Wood County,32.758039000000004,-95.586251,N,N,0,N,N,N,N,4805,48005,48001,2017-2018,42,0.0,1,42
4807680,ALBANY ISD,48,501 E S FIRST ST,ALBANY,TX,76430,48,48417,Shackelford County,32.724261,-99.289099,N,N,0,N,N,N,N,4819,48060,48028,2017-2018,43,0.0,1,43
4807710,ALDINE ISD,48,2520 W W THORNE DR,HOUSTON,TX,77073,48,48201,Harris County,30.004261,-95.389523,26420,"Houston-The Woodlands-Sugar Land, TX",1,288,"Houston-The Woodlands, TX",N,N,4818,48141,48015,2017-2018,21,30.47,2,"11, 21"
4807780,ALEDO ISD,48,1008 BAILEY RANCH RD,ALEDO,TX,76008,48,48367,Parker County,32.71118,-97.616201,19100,"Dallas-Fort Worth-Arlington, TX",1,206,"Dallas-Fort Worth, TX-OK",N,N,4812,48061,48030,2017-2018,41,44.11,2,"31, 41"
4807800,ALICE ISD,48,2 COYOTE TRL,ALICE,TX,78332,48,48249,Jim Wells County,27.756742000000003,-98.051543,10860,"Alice, TX",2,204,"Corpus Christi-Kingsville-Alice, TX",N,N,4834,48043,48020,2017-2018,32,0.0,1,32
4807830,ALIEF ISD,48,4250 COOK RD,HOUSTON,TX,77072,48,48201,Harris County,29.712213,-95.596358,26420,"Houston-The Woodlands-Sugar Land, TX",1,288,"Houston-The Woodlands, TX",N,N,4809,48149,48013,2017-2018,11,23.02,2,"11, 21"
4807890,ALLEN ISD,48,612 E BETHANY RD,ALLEN,TX,75002,48,48085,Collin County,33.0858,-96.6659,19100,"Dallas-Fort Worth-Arlington, TX",1,206,"Dallas-Fort Worth, TX-OK",N,N,4803,48089,48008,2017-2018,21,5.83,3,"21, 22, 41"
4807950,ALPINE ISD,48,704 W SUL ROSS AVE,ALPINE,TX,79830,48,48043,Brewster County,30.357498,-103.668169,N,N,0,N,N,N,N,4823,48074,48019,2017-2018,33,0.0,1,33
4807980,ALTO ISD,48,244 COUNTY RD 2429,ALTO,TX,75925,48,48073,Cherokee County,31.661726,-95.074125,27380,"Jacksonville, TX",2,540,"Tyler-Jacksonville, TX",N,N,4805,48011,48003,2017-2018,42,0.0,1,42
4808090,ALVIN ISD,48,301 E HOUSE ST,ALVIN,TX,77511,48,48039,Brazoria County,29.418425000000003,-95.240814,26420,"Houston-The Woodlands-Sugar Land, TX",1,288,"Houston-The Woodlands, TX",N,N,4822,48029,48011,2017-2018,21,35.26,2,"21, 41"
4808100,ALVORD ISD,48,100 MOSLEY LN,ALVORD,TX,76225,48,48497,Wise County,33.360620000000004,-97.700931,19100,"Dallas-Fort Worth-Arlington, TX",1,206,"Dallas-Fort Worth, TX-OK",N,N,4813,48061,48030,2017-2018,42,0.0,1,42
4808130,AMARILLO ISD,48,7200 I 40 W,AMARILLO,TX,79106,48,48375,Potter County,35.193101,-101.919938,11100,"Amarillo, TX",1,108,"Amarillo-Borger, TX",N,N,4813,48087,48031,2017-2018,12,0.0,1,12
4808160,AMHERST ISD,48,100 N MAIN,AMHERST,TX,79312,48,48279,Lamb County,34.016647,-102.40994,N,N,0,N,N,N,N,4819,48088,48028,2017-2018,42,0.6,2,"42, 43"
4808190,ANAHUAC ISD,48,804 MIKHAEL RICKS DR,ANAHUAC,TX,77514,48,48071,Chambers County,29.771131,-94.678546,26420,"Houston-The Woodlands-Sugar Land, TX",1,288,"Houston-The Woodlands, TX",N,N,4836,48023,48004,2017-2018,42,0.0,1,42
4808230,ANDERSON-SHIRO CISD,48,458 FM 149 W,ANDERSON,TX,77830,48,48185,Grimes County,30.488262,-95.994018,N,N,0,N,N,N,N,4808,48013,48005,2017-2018,42,0.0,1,42
4808280,ANDREWS ISD,48,405 NW 3RD ST,ANDREWS,TX,79714,48,48003,Andrews County,32.32137,-102.551591,11380,"Andrews, TX",2,N,N,N,N,4811,48081,48031,2017-2018,32,0.0,1,32
4808310,ANGLETON ISD,48,1900 N DOWNING RD,ANGLETON,TX,77515,48,48039,Brazoria County,29.177,-95.418,26420,"Houston-The Woodlands-Sugar Land, TX",1,288,"Houston-The Woodlands, TX",N,N,4814,48025,48011,2017-2018,41,48.45,2,"23, 41"
4808340,ANNA ISD,48,501 S SHERLEY AVE,ANNA,TX,75409,48,48085,Collin County,33.34485,-96.548201,19100,"Dallas-Fort Worth-Arlington, TX",1,206,"Dallas-Fort Worth, TX-OK",N,N,4804,48033,48030,2017-2018,31,31.61,3,"22, 31, 41"
4808400,ANSON ISD,48,1431 COMMERCIAL AVE,ANSON,TX,79501,48,48253,Jones County,32.753634,-99.896822,10180,"Abilene, TX",1,N,N,N,N,4819,48071,48028,2017-2018,42,0.0,1,42
4808430,ANTHONY ISD,48,840 SIXTH ST,ANTHONY,TX,79821,48,48141,El Paso County,31.995325,-106.601333,21340,"El Paso, TX",1,238,"El Paso-Las Cruces, TX-NM",N,N,4816,48078,48029,2017-2018,21,0.0,1,21
4808460,ANTON ISD,48,100 ELLWOOD BLVD,ANTON,TX,79313,48,48219,Hockley County,33.814793,-102.16247,30220,"Levelland, TX",2,352,"Lubbock-Levelland, TX",N,N,4819,48088,48028,2017-2018,42,0.84,3,"33, 42, 43"
4808490,APPLE SPRINGS ISD,48,9120 FM 2501,APPLE SPRINGS,TX,75926,48,48455,Trinity County,31.225043,-94.970697,26660,"Huntsville, TX",2,288,"Houston-The Woodlands, TX",N,N,4808,48057,48003,2017-2018,42,0.0,1,42
4808520,AQUILLA ISD,48,404 N RICHARDS,AQUILLA,TX,76622,48,48217,Hill County,31.854315,-97.218565,N,N,0,N,N,N,N,4825,48008,48022,2017-2018,42,0.0,1,42
4808550,ARANSAS COUNTY ISD,48,1700 OMOHUNDRO,ROCKPORT,TX,78382,48,48007,Aransas County,28.040699,-97.044946,18580,"Corpus Christi, TX",1,204,"Corpus Christi-Kingsville-Alice, TX",N,N,4827,48030,48018,2017-2018,32,0.0,1,32
4808580,ARANSAS PASS ISD,48,2300 MCMULLEN LANE STE 600,ARANSAS PASS,TX,78336,48,48409,San Patricio County,27.914833,-97.173479,18580,"Corpus Christi, TX",1,204,"Corpus Christi-Kingsville-Alice, TX",N,N,4827,48043,48021,2017-2018,31,0.0,1,31
4808610,ARCHER CITY ISD,48,600 S ASH,ARCHER CITY,TX,76351,48,48009,Archer County,33.589093,-98.630853,48660,"Wichita Falls, TX",1,N,N,N,N,4813,48069,48030,2017-2018,42,0.0,1,42
4808670,ARGYLE ISD,48,800 EAGLE DR,ARGYLE,TX,76226,48,48121,Denton County,33.12477,-97.186851,19100,"Dallas-Fort Worth-Arlington, TX",1,206,"Dallas-Fort Worth, TX-OK",N,N,4826,48063,48012,2017-2018,41,0.04,2,"12, 41"
4808700,ARLINGTON ISD,48,1203 W PIONEER PKWY,ARLINGTON,TX,76013,48,48439,Tarrant County,32.70982,-97.124471,19100,"Dallas-Fort Worth-Arlington, TX",1,206,"Dallas-Fort Worth, TX-OK",N,N,4806,48094,48009,2017-2018,11,8.08,2,"11, 21"
4808730,ARP ISD,48,101 TONEY DR,ARP,TX,75750,48,48423,Smith County,32.229632,-95.059236,46340,"Tyler, TX",1,540,"Tyler-Jacksonville, TX",N,N,4801,48005,48001,2017-2018,42,0.0,1,42
4808870,ATHENS ISD,48,104 HAWN ST,ATHENS,TX,75751,48,48213,Henderson County,32.20423,-95.858941,11980,"Athens, TX",2,206,"Dallas-Fort Worth, TX-OK",N,N,4805,48004,48003,2017-2018,32,16.1,2,"32, 41"
4808880,ATLANTA ISD,48,106 W MAIN ST,ATLANTA,TX,75551,48,48067,Cass County,33.11442,-94.166021,N,N,0,N,N,N,N,4804,48009,48001,2017-2018,32,42.69,2,"32, 41"
4808910,AUBREY ISD,48,415 TISDELL LN,AUBREY,TX,76227,48,48121,Denton County,33.305952,-96.980866,19100,"Dallas-Fort Worth-Arlington, TX",1,206,"Dallas-Fort Worth, TX-OK",N,N,4826,48106,48030,2017-2018,41,41.63,3,"21, 31, 41"
4808940,AUSTIN ISD,48,1111 W 6TH ST,AUSTIN,TX,78703,48,48453,Travis County,30.27207,-97.756051,12420,"Austin-Round Rock, TX",1,N,N,N,N,4821,48049,48014,2017-2018,11,4.31,3,"11, 21, 41"
4809000,AUSTWELL-TIVOLI ISD,48,207 REDFISH ST,TIVOLI,TX,77990,48,48391,Refugio County,28.457256,-96.891151,N,N,0,N,N,N,N,4827,48030,48018,2017-2018,42,0.0,1,42
4809030,AVALON ISD,48,104 F M 55,AVALON,TX,76623,48,48139,Ellis County,32.205326,-96.791374,19100,"Dallas-Fort Worth-Arlington, TX",1,206,"Dallas-Fort Worth, TX-OK",N,N,4806,48010,48022,2017-2018,42,0.0,1,42
4809060,AVERY ISD,48,150 SAN ANTONIO ST,AVERY,TX,75554,48,48387,Red River County,33.552444,-94.786687,N,N,0,N,N,N,N,4804,48001,48001,2017-2018,43,0.0,1,43
4809090,AVINGER ISD,48,245 CONNOR ST,AVINGER,TX,75630,48,48067,Cass County,32.902233,-94.561797,N,N,0,N,N,N,N,4804,48009,48001,2017-2018,42,0.0,1,42
4809150,AXTELL ISD,48,308 OTTAWA,AXTELL,TX,76624,48,48309,McLennan County,31.65895,-96.974091,47380,"Waco, TX",1,N,N,N,N,4817,48012,48022,2017-2018,42,8.94,2,"12, 42"
4809200,AZLE ISD,48,300 ROE ST,AZLE,TX,76020,48,48439,Tarrant County,32.89679,-97.54341,19100,"Dallas-Fort Worth-Arlington, TX",1,206,"Dallas-Fort Worth, TX-OK",N,N,4812,48099,48012,2017-2018,21,17.33,2,"21, 41"
4809280,BAIRD ISD,48,600 W 7TH ST,BAIRD,TX,79504,48,48059,Callahan County,32.398557000000004,-99.399674,10180,"Abilene, TX",1,N,N,N,N,4811,48060,48024,2017-2018,42,0.0,1,42
4809300,BALLINGER ISD,48,802 CONDA AVE,BALLINGER,TX,76821,48,48399,Runnels County,31.752153,-99.971414,N,N,0,N,N,N,N,4811,48072,48028,2017-2018,41,48.06,2,"32, 41"
4809330,BALMORHEA ISD,48,1ST AND EL PASO ST,BALMORHEA,TX,79718,48,48389,Reeves County,30.983132,-103.746181,37780,"Pecos, TX",2,N,N,N,N,4823,48074,48019,2017-2018,43,0.0,1,43
4809360,BANDERA ISD,48,815 PECAN ST,BANDERA,TX,78003,48,48019,Bandera County,29.723777,-99.076725,41700,"San Antonio-New Braunfels, TX",1,N,N,N,N,4821,48053,48024,2017-2018,42,0.0,1,42
4809390,BANGS ISD,48,200 E HALL,BANGS,TX,76823,48,48049,Brown County,31.716900000000003,-99.1313,15220,"Brownwood, TX",2,N,N,N,N,4811,48060,48024,2017-2018,42,0.0,1,42
4809410,BANQUETE ISD,48,4339 FOURTH ST,BANQUETE,TX,78339,48,48355,Nueces County,27.8056,-97.796741,18580,"Corpus Christi, TX",1,204,"Corpus Christi-Kingsville-Alice, TX",N,N,4827,48034,48020,2017-2018,42,0.11,2,"11, 42"
4809450,BARBERS HILL ISD,48,9600 EAGLE DR,MONT BELVIEU,TX,77580,48,48071,Chambers County,29.836157,-94.848792,26420,"Houston-The Woodlands-Sugar Land, TX",1,288,"Houston-The Woodlands, TX",N,N,4836,48023,48004,2017-2018,41,0.06,2,"21, 41"
4809540,BARTLETT ISD,48,404 N ROBINSON,BARTLETT,TX,76511,48,48027,Bell County,30.797124,-97.421841,28660,"Killeen-Temple, TX",1,N,N,N,N,4831,48055,48024,2017-2018,32,0.0,1,32
4809570,BASTROP ISD,48,906 FARM ST,BASTROP,TX,78602,48,48021,Bastrop County,30.1128,-97.3156,12420,"Austin-Round Rock, TX",1,N,N,N,N,4810,48017,48014,2017-2018,42,48.71,3,"32, 41, 42"
4809630,BAY CITY ISD,48,520 7TH ST,BAY CITY,TX,77414,48,48321,Matagorda County,28.982508000000003,-95.983653,13060,"Bay City, TX",2,288,"Houston-The Woodlands, TX",N,N,4827,48025,48018,2017-2018,32,27.42,2,"32, 41"
4809670,BEAUMONT ISD,48,3395 HARRISON AVE,BEAUMONT,TX,77706,48,48245,Jefferson County,30.08932,-94.137011,13140,"Beaumont-Port Arthur, TX",1,N,N,N,N,4814,48022,48004,2017-2018,12,5.01,3,"12, 22, 41"
4809690,BECKVILLE ISD,48,4398 SH 149,BECKVILLE,TX,75631,48,48365,Panola County,32.2379,-94.4541,N,N,0,N,N,N,N,4801,48009,48001,2017-2018,42,0.0,1,42
4809720,BEEVILLE ISD,48,201 N SAINT MARYS ST,BEEVILLE,TX,78102,48,48025,Bee County,28.40302,-97.748681,13300,"Beeville, TX",2,N,N,N,N,4834,48043,48021,2017-2018,32,12.7,2,"32, 41"
4809750,BELLEVUE ISD,48,500 SEVENTH ST,BELLEVUE,TX,76228,48,48077,Clay County,33.630975,-98.015477,48660,"Wichita Falls, TX",1,N,N,N,N,4813,48069,48030,2017-2018,42,0.0,1,42
4809780,BELLS ISD,48,1550 OLE AMBROSE RD,BELLS,TX,75414,48,48181,Grayson County,33.633497,-96.406301,43300,"Sherman-Denison, TX",1,206,"Dallas-Fort Worth, TX-OK",N,N,4804,48062,48030,2017-2018,42,0.0,1,42
4809810,BELLVILLE ISD,48,518 S MATHEWS,BELLVILLE,TX,77418,48,48015,Austin County,29.944814,-96.256598,26420,"Houston-The Woodlands-Sugar Land, TX",1,288,"Houston-The Woodlands, TX",N,N,4810,48013,48018,2017-2018,32,6.63,2,"32, 43"
4809860,BELTON ISD,48,400 N WALL,BELTON,TX,76513,48,48027,Bell County,31.058437,-97.459727,28660,"Killeen-Temple, TX",1,N,N,N,N,4831,48055,48024,2017-2018,23,46.04,4,"12, 13, 23, 41"
4809870,BEN BOLT-PALITO BLANCO ISD,48,172 BADGER LN,BEN BOLT,TX,78342,48,48249,Jim Wells County,27.646553,-98.087996,10860,"Alice, TX",2,204,"Corpus Christi-Kingsville-Alice, TX",N,N,4834,48043,48020,2017-2018,42,0.0,1,42
4809980,BENJAMIN ISD,48,300 HAYES ST,BENJAMIN,TX,79505,48,48275,Knox County,33.583494,-99.789317,N,N,0,N,N,N,N,4813,48069,48028,2017-2018,43,0.0,1,43
4810140,BIG SANDY ISD,48,401 WILDCAT DR,BIG SANDY,TX,75755,48,48459,Upshur County,32.58673,-95.111058,30980,"Longview, TX",1,346,"Longview-Marshall, TX",N,N,4801,48007,48001,2017-2018,42,0.0,1,42
4810170,BIG SANDY ISD,48,9180 FM 1276,DALLARDSVILLE,TX,77332,48,48373,Polk County,30.628109,-94.632616,N,N,0,N,N,N,N,4836,48019,48003,2017-2018,43,0.0,1,43
4810200,BIG SPRING ISD,48,708 E 11TH PL,BIG SPRING,TX,79720,48,48227,Howard County,32.246030000000005,-101.464401,13700,"Big Spring, TX",2,N,N,N,N,4819,48072,48031,2017-2018,32,2.63,2,"32, 41"
4810230,BIRDVILLE ISD,48,6125 E BELKNAP ST,HALTOM CITY,TX,76117,48,48439,Tarrant County,32.805938000000005,-97.25457,19100,"Dallas-Fort Worth-Arlington, TX",1,206,"Dallas-Fort Worth, TX-OK",N,N,4812,48091,48009,2017-2018,21,0.0,1,21
4810260,BISHOP CISD,48,719 E SIXTH ST,BISHOP,TX,78343,48,48355,Nueces County,27.58063,-97.79289,18580,"Corpus Christi, TX",1,204,"Corpus Christi-Kingsville-Alice, TX",N,N,4827,48034,48020,2017-2018,32,7.26,2,"32, 42"
4810320,BLANCO ISD,48,814 ELEVENTH ST,BLANCO,TX,78606,48,48031,Blanco County,30.105346,-98.421757,N,N,0,N,N,N,N,4821,48045,48024,2017-2018,42,0.0,1,42
4810350,BLAND ISD,48,2556 LK AVE,MERIT,TX,75458,48,48231,Hunt County,33.2107,-96.2901,19100,"Dallas-Fort Worth-Arlington, TX",1,206,"Dallas-Fort Worth, TX-OK",N,N,4804,48002,48002,2017-2018,42,0.0,1,42
4810380,BLANKET ISD,48,901 AVE H,BLANKET,TX,76432,48,48049,Brown County,31.821338,-98.791987,15220,"Brownwood, TX",2,N,N,N,N,4811,48060,48024,2017-2018,42,0.0,1,42
4810440,BLOOMBURG ISD,48,211 W CYPRESS ST,BLOOMBURG,TX,75556,48,48067,Cass County,33.135668,-94.06085,N,N,0,N,N,N,N,4804,48009,48001,2017-2018,42,0.0,1,42
4810470,BLOOMING GROVE ISD,48,212 W GRADY ST,BLOOMING GROVE,TX,76626,48,48349,Navarro County,32.087795,-96.713607,18620,"Corsicana, TX",2,206,"Dallas-Fort Worth, TX-OK",N,N,4806,48008,48022,2017-2018,42,0.11,2,"32, 42"
4810500,BLOOMINGTON ISD,48,2875 F M 616,VICTORIA,TX,77905,48,48469,Victoria County,28.672511,-96.855128,47020,"Victoria, TX",1,544,"Victoria-Port Lavaca, TX",N,N,4827,48030,48018,2017-2018,42,0.0,1,42
4810590,BLUE RIDGE ISD,48,318 W SCHOOL ST,BLUE RIDGE,TX,75424,48,48085,Collin County,33.304443,-96.402957,19100,"Dallas-Fort Worth-Arlington, TX",1,206,"Dallas-Fort Worth, TX-OK",N,N,4804,48033,48030,2017-2018,42,0.0,1,42
4810620,BLUFF DALE ISD,48,710 CHURCH ST,BLUFF DALE,TX,76433,48,48143,Erath County,32.349935,-98.02405,44500,"Stephenville, TX",2,N,N,N,N,4811,48059,48030,2017-2018,43,0.0,1,43
4810650,BLUM ISD,48,310 S AVE F,BLUM,TX,76627,48,48217,Hill County,32.139234,-97.396758,N,N,0,N,N,N,N,4825,48008,48022,2017-2018,42,0.28,2,"32, 42"
4810710,BOERNE ISD,48,235 JOHNS RD,BOERNE,TX,78006,48,48259,Kendall County,29.794982,-98.736463,41700,"San Antonio-New Braunfels, TX",1,N,N,N,N,4821,48073,48025,2017-2018,41,48.58,3,"21, 31, 41"
4810740,BOLES ISD,48,9777 F M 2101,QUINLAN,TX,75474,48,48231,Hunt County,32.946302,-96.102092,19100,"Dallas-Fort Worth-Arlington, TX",1,206,"Dallas-Fort Worth, TX-OK",N,N,4804,48002,48002,2017-2018,41,0.0,1,41
4810780,BOLING ISD,48,301 TEXAS AVE,BOLING,TX,77420,48,48481,Wharton County,29.2643,-95.9417,20900,"El Campo, TX",2,288,"Houston-The Woodlands, TX",N,N,4827,48085,48018,2017-2018,42,0.0,1,42
4810800,BONHAM ISD,48,1005 CHESTNUT ST,BONHAM,TX,75418,48,48147,Fannin County,33.582695,-96.176537,14300,"Bonham, TX",2,206,"Dallas-Fort Worth, TX-OK",N,N,4804,48062,48002,2017-2018,32,0.0,1,32
4810830,BOOKER ISD,48,600 S MAIN,BOOKER,TX,79005,48,48295,Lipscomb County,36.448331,-100.542179,N,N,0,N,N,N,N,4813,48088,48031,2017-2018,43,0.0,1,43
4810860,BORDEN COUNTY ISD,48,240 W KINCAID,GAIL,TX,79738,48,48033,Borden County,32.776113,-101.44963,N,N,0,N,N,N,N,4819,48083,48028,2017-2018,43,0.43,2,"33, 43"
4810890,BORGER ISD,48,200 E 9TH ST,BORGER,TX,79007,48,48233,Hutchinson County,35.675487000000004,-101.388687,14420,"Borger, TX",2,108,"Amarillo-Borger, TX",N,N,4813,48087,48031,2017-2018,32,0.0,1,32
4810910,BOSQUEVILLE ISD,48,7636 ROCK CREEK RD,WACO,TX,76708,48,48309,McLennan County,31.61795,-97.195947,47380,"Waco, TX",1,N,N,N,N,4817,48056,48022,2017-2018,41,0.14,2,"12, 41"
4810950,BOVINA ISD,48,500 HALSELL ST,BOVINA,TX,79009,48,48369,Parmer County,34.513905,-102.889573,N,N,0,N,N,N,N,4819,48086,48031,2017-2018,43,0.0,1,43
4810990,BOWIE ISD,48,100 W WICHITA ST,BOWIE,TX,76230,48,48337,Montague County,33.5563,-97.8496,N,N,0,N,N,N,N,4813,48068,48030,2017-2018,33,0.06,2,"33, 41"
4811010,BOYD ISD,48,600 KNOX AVE,BOYD,TX,76023,48,48497,Wise County,33.075521,-97.572496,19100,"Dallas-Fort Worth-Arlington, TX",1,206,"Dallas-Fort Worth, TX-OK",N,N,4813,48061,48030,2017-2018,42,32.88,2,"41, 42"
4811040,BOYS RANCH ISD,48,163 RIVER RD,BOYS RANCH,TX,79010,48,48359,Oldham County,35.531,-102.2507,11100,"Amarillo, TX",1,108,"Amarillo-Borger, TX",N,N,4813,48086,48031,2017-2018,43,0.0,1,43
4811070,BRACKETT ISD,48,201 N ANN ST,BRACKETTVILLE,TX,78832,48,48271,Kinney County,29.31653,-100.413951,N,N,0,N,N,N,N,4823,48074,48019,2017-2018,33,0.0,1,33
4811110,BRADY ISD,48,1003 W 11TH ST,BRADY,TX,76825,48,48307,McCulloch County,31.12656,-99.343461,N,N,0,N,N,N,N,4811,48059,48028,2017-2018,41,0.34,2,"33, 41"
4811190,BRAZOSPORT ISD,48,301 W BRAZOSWOOD DR,CLUTE,TX,77531,48,48039,Brazoria County,29.02456,-95.412971,26420,"Houston-The Woodlands-Sugar Land, TX",1,288,"Houston-The Woodlands, TX",N,N,4814,48025,48017,2017-2018,23,2.45,2,"23, 41"
4811220,BRECKENRIDGE ISD,48,208 N MILLER,BRECKENRIDGE,TX,76424,48,48429,Stephens County,32.756416,-98.907518,N,N,0,N,N,N,N,4811,48060,48028,2017-2018,33,0.0,1,33
4811250,BREMOND ISD,48,601 W COLLINS ST,BREMOND,TX,76629,48,48395,Robertson County,31.164906,-96.683568,17780,"College Station-Bryan, TX",1,N,N,N,N,4817,48012,48005,2017-2018,43,0.0,1,43
4811280,BRENHAM ISD,48,711 E MANSFIELD,BRENHAM,TX,77833,48,48477,Washington County,30.156892000000003,-96.388283,14780,"Brenham, TX",2,288,"Houston-The Woodlands, TX",N,N,4810,48013,48018,2017-2018,32,25.5,2,"32, 41"
4811310,BRIDGE CITY ISD,48,1031 W ROUNDBUNCH RD,BRIDGE CITY,TX,77611,48,48361,Orange County,30.035047,-93.852708,13140,"Beaumont-Port Arthur, TX",1,N,N,N,N,4836,48021,48003,2017-2018,41,47.86,2,"22, 41"
4811340,BRIDGEPORT ISD,48,2107 15TH ST,BRIDGEPORT,TX,76426,48,48497,Wise County,33.219395,-97.752183,19100,"Dallas-Fort Worth-Arlington, TX",1,206,"Dallas-Fort Worth, TX-OK",N,N,4813,48061,48030,2017-2018,41,23.33,2,"32, 41"
4811400,FORT ELLIOTT CISD,48,501 E WILSON,BRISCOE,TX,79011,48,48483,Wheeler County,35.583197,-100.284385,N,N,0,N,N,N,N,4813,48068,48031,2017-2018,43,0.0,1,43
4811430,BROADDUS ISD,48,1 BULLDOG PLAZA,BROADDUS,TX,75929,48,48405,San Augustine County,31.307514,-94.265263,N,N,0,N,N,N,N,4801,48057,48003,2017-2018,43,0.0,1,43
4811460,BROCK ISD,48,410 EAGLE SPIRIT LN,BROCK,TX,76087,48,48367,Parker County,32.6763,-97.9425,19100,"Dallas-Fort Worth-Arlington, TX",1,206,"Dallas-Fort Worth, TX-OK",N,N,4812,48061,48030,2017-2018,42,0.0,1,42
4811490,BRONTE ISD,48,210 S JEFFERSON,BRONTE,TX,76933,48,48081,Coke County,31.885702,-100.297356,N,N,0,N,N,N,N,4811,48072,48028,2017-2018,43,0.8,2,"41, 43"
4811520,BROOKELAND ISD,48,LOOP 149,BROOKELAND,TX,75931,48,48403,Sabine County,31.149980000000003,-93.993395,N,N,0,N,N,N,N,4801,48009,48003,2017-2018,43,0.0,1,43
4811550,BROOKESMITH ISD,48,13400 FM 586 S,BROOKESMITH,TX,76827,48,48049,Brown County,31.548077000000003,-99.119555,15220,"Brownwood, TX",2,N,N,N,N,4811,48060,48024,2017-2018,43,0.0,1,43
4811580,BROOKS COUNTY ISD,48,200 E ALLEN ST,FALFURRIAS,TX,78355,48,48047,Brooks County,27.2248,-98.143231,N,N,0,N,N,N,N,4815,48031,48020,2017-2018,33,25.49,2,"33, 41"
4811610,BROWNFIELD ISD,48,601 TAHOKA RD,BROWNFIELD,TX,79316,48,48445,Terry County,33.181827,-102.269137,N,N,0,N,N,N,N,4819,48083,48028,2017-2018,32,38.45,2,"32, 41"
4811640,BROWNSBORO ISD,48,HWY 31 W,BROWNSBORO,TX,75756,48,48213,Henderson County,32.300819000000004,-95.618369,11980,"Athens, TX",2,206,"Dallas-Fort Worth, TX-OK",N,N,4805,48004,48003,2017-2018,42,28.13,2,"41, 42"
4811680,BROWNSVILLE ISD,48,1900 PRICE RD,BROWNSVILLE,TX,78521,48,48061,Cameron County,25.9336,-97.4912,15180,"Brownsville-Harlingen, TX",1,154,"Brownsville-Harlingen-Raymondville, TX",N,N,4834,48037,48027,2017-2018,12,10.29,3,"12, 22, 41"
4811700,BROWNWOOD ISD,48,2707 SOUTHSIDE DR,BROWNWOOD,TX,76801,48,48049,Brown County,31.690962000000003,-98.972921,15220,"Brownwood, TX",2,N,N,N,N,4811,48060,48024,2017-2018,33,14.73,2,"33, 41"
4811730,BRUCEVILLE-EDDY ISD,48,1 EAGLE DR,EDDY,TX,76524,48,48309,McLennan County,31.306216000000003,-97.248695,47380,"Waco, TX",1,N,N,N,N,4817,48056,48022,2017-2018,42,0.0,1,42
4811790,BRYAN ISD,48,101 N TEXAS AVE,BRYAN,TX,77803,48,48041,Brazos County,30.67377,-96.369461,17780,"College Station-Bryan, TX",1,N,N,N,N,4817,48014,48005,2017-2018,13,26.97,2,"13, 41"
4811820,BRYSON ISD,48,300 N MCCLOUD ST,BRYSON,TX,76427,48,48237,Jack County,33.163371,-98.382158,N,N,0,N,N,N,N,4813,48068,48030,2017-2018,43,0.0,1,43
4811850,BUCKHOLTS ISD,48,203 S 10TH,BUCKHOLTS,TX,76518,48,48331,Milam County,30.870842,-97.125106,N,N,0,N,N,N,N,4817,48020,48005,2017-2018,42,0.0,1,42
4811910,BUENA VISTA ISD,48,HWY 11 W,IMPERIAL,TX,79743,48,48371,Pecos County,31.2754,-102.6946,N,N,0,N,N,N,N,4823,48074,48019,2017-2018,43,0.0,1,43
4811990,BUFFALO ISD,48,708 CEDAR CREEK RD,BUFFALO,TX,75831,48,48289,Leon County,31.463215,-96.071953,N,N,0,N,N,N,N,4817,48057,48005,2017-2018,43,0.0,1,43
4812060,BULLARD ISD,48,1426 B S HOUSTON,BULLARD,TX,75757,48,48073,Cherokee County,32.132600000000004,-95.3168,27380,"Jacksonville, TX",2,540,"Tyler-Jacksonville, TX",N,N,4805,48011,48003,2017-2018,41,30.08,2,"22, 41"
4812090,BUNA ISD,48,HWY 62 AND 253,BUNA,TX,77612,48,48241,Jasper County,30.4306,-93.9573,N,N,0,N,N,N,N,4836,48019,48003,2017-2018,42,0.0,1,42
4812120,BURKBURNETT ISD,48,416 GLENDALE ST,BURKBURNETT,TX,76354,48,48485,Wichita County,34.0916,-98.5677,48660,"Wichita Falls, TX",1,N,N,N,N,4813,48069,48030,2017-2018,31,37.87,3,"12, 31, 41"
4812150,BURKEVILLE ISD,48,231 CR 2099,BURKEVILLE,TX,75932,48,48351,Newton County,31.001808,-93.667855,13140,"Beaumont-Port Arthur, TX",1,N,N,N,N,4836,48019,48003,2017-2018,43,0.0,1,43
4812180,BURLESON ISD,48,1160 S W WILSHIRE BLVD,BURLESON,TX,76028,48,48251,Johnson County,32.526,-97.3443,19100,"Dallas-Fort Worth-Arlington, TX",1,206,"Dallas-Fort Worth, TX-OK",N,N,4825,48058,48022,2017-2018,21,5.75,2,"11, 21"
4812220,BURNET CISD,48,208 E BRIER LN,BURNET,TX,78611,48,48053,Burnet County,30.7605,-98.2267,N,N,0,N,N,N,N,4825,48020,48024,2017-2018,41,30.65,3,"32, 41, 42"
4812240,BURTON ISD,48,701 N RAILROAD ST,BURTON,TX,77835,48,48477,Washington County,30.182292,-96.597728,14780,"Brenham, TX",2,288,"Houston-The Woodlands, TX",N,N,4810,48013,48018,2017-2018,42,0.0,1,42
4812360,BYNUM ISD,48,704 TOLIVER ST,BYNUM,TX,76631,48,48217,Hill County,31.96797,-97.00041,N,N,0,N,N,N,N,4825,48008,48022,2017-2018,42,0.56,2,"32, 42"
4812390,CADDO MILLS ISD,48,100 FOX LN,CADDO MILLS,TX,75135,48,48231,Hunt County,33.07801,-96.2286,19100,"Dallas-Fort Worth-Arlington, TX",1,206,"Dallas-Fort Worth, TX-OK",N,N,4804,48002,48002,2017-2018,42,0.0,1,42
4812420,CALALLEN ISD,48,4205 WILDCAT DR,CORPUS CHRISTI,TX,78410,48,48355,Nueces County,27.86117,-97.634602,18580,"Corpus Christi, TX",1,204,"Corpus Christi-Kingsville-Alice, TX",N,N,4827,48034,48020,2017-2018,11,0.0,1,11
4812460,CALDWELL ISD,48,203 N GRAY ST,CALDWELL,TX,77836,48,48051,Burleson County,30.52867,-96.700491,17780,"College Station-Bryan, TX",1,N,N,N,N,4817,48013,48018,2017-2018,41,22.94,2,"32, 41"
4812480,CALHOUN COUNTY ISD,48,525 N COMMERCE ST,PORT LAVACA,TX,77979,48,48057,Calhoun County,28.6202,-96.6274,38920,"Port Lavaca, TX",2,544,"Victoria-Port Lavaca, TX",N,N,4827,48030,48018,2017-2018,32,9.83,3,"32, 42, 43"
4812510,CALLISBURG ISD,48,148 DOZIER ST,CALLISBURG,TX,76240,48,48097,Cooke County,33.701750000000004,-97.011831,23620,"Gainesville, TX",2,206,"Dallas-Fort Worth, TX-OK",N,N,4813,48068,48030,2017-2018,42,0.09,2,"41, 42"
4812540,CALVERT ISD,48,310 HICKORY ST,CALVERT,TX,77837,48,48395,Robertson County,30.984332,-96.665127,17780,"College Station-Bryan, TX",1,N,N,N,N,4817,48012,48005,2017-2018,42,0.0,1,42
4812640,CAMERON ISD,48,304 E 12TH,CAMERON,TX,76520,48,48331,Milam County,30.858218,-96.971676,N,N,0,N,N,N,N,4817,48020,48005,2017-2018,41,26.54,2,"32, 41"
4812660,CAMPBELL ISD,48,480 N PATTERSON ST,CAMPBELL,TX,75422,48,48231,Hunt County,33.15384,-95.950951,19100,"Dallas-Fort Worth-Arlington, TX",1,206,"Dallas-Fort Worth, TX-OK",N,N,4804,48002,48002,2017-2018,42,0.0,1,42
4812700,CANADIAN ISD,48,800 HILLSIDE AVE,CANADIAN,TX,79014,48,48211,Hemphill County,35.908167,-100.382346,N,N,0,N,N,N,N,4813,48088,48031,2017-2018,33,0.0,1,33
4812750,CANTON ISD,48,1045 S BUFFALO,CANTON,TX,75103,48,48467,Van Zandt County,32.548701,-95.865012,N,N,0,N,N,N,N,4805,48002,48002,2017-2018,32,0.0,1,32
4812780,CANUTILLO ISD,48,7965 ARTCRAFT,EL PASO,TX,79932,48,48141,El Paso County,31.882917000000003,-106.586265,21340,"El Paso, TX",1,238,"El Paso-Las Cruces, TX-NM",N,N,4816,48078,48029,2017-2018,11,61.51,3,"11, 21, 41"
4812810,CANYON ISD,48,3301 N 23RD ST,CANYON,TX,79015,48,48381,Randall County,34.999112000000004,-101.918689,11100,"Amarillo, TX",1,108,"Amarillo-Borger, TX",N,N,4813,48086,48031,2017-2018,12,45.23,4,"12, 22, 31, 41"
4812870,CARLISLE ISD,48,8960 F M 13,HENDERSON,TX,75654,48,48401,Rusk County,32.135447,-94.94243,30980,"Longview, TX",1,346,"Longview-Marshall, TX",N,N,4801,48011,48001,2017-2018,42,0.0,1,42
4812990,CARRIZO SPRINGS CISD,48,300 N SEVENTH ST,CARRIZO SPRINGS,TX,78834,48,48127,Dimmit County,28.523844,-99.861512,N,N,0,N,N,N,N,4823,48080,48019,2017-2018,33,0.05,2,"33, 42"
4813020,CARROLL ISD,48,2400 N CARROLL AVE,SOUTHLAKE,TX,76092,48,48439,Tarrant County,32.972010000000004,-97.135858,19100,"Dallas-Fort Worth-Arlington, TX",1,206,"Dallas-Fort Worth, TX-OK",N,N,4824,48098,48009,2017-2018,21,0.01,2,"11, 21"
4813050,CARROLLTON-FARMERS BRANCH ISD,48,1445 N PERRY RD,CARROLLTON,TX,75006,48,48113,Dallas County,32.956845,-96.896255,19100,"Dallas-Fort Worth-Arlington, TX",1,206,"Dallas-Fort Worth, TX-OK",N,N,4824,48115,48016,2017-2018,21,24.83,3,"11, 12, 21"
4813110,CARTHAGE ISD,48,1600 W PANOLA,CARTHAGE,TX,75633,48,48365,Panola County,32.160086,-94.365516,N,N,0,N,N,N,N,4801,48009,48001,2017-2018,32,29.49,2,"32, 41"
4813170,CASTLEBERRY ISD,48,5228 OHIO GARDEN RD,FORT WORTH,TX,76114,48,48439,Tarrant County,32.777094,-97.398603,19100,"Dallas-Fort Worth-Arlington, TX",1,206,"Dallas-Fort Worth, TX-OK",N,N,4812,48099,48012,2017-2018,21,18.42,2,"11, 21"
4813200,CAYUGA ISD,48,17750 N US HWY 287,TENNESSEE COLONY,TX,75861,48,48001,Anderson County,31.92249,-95.923651,37300,"Palestine, TX",2,N,N,N,N,4805,48008,48003,2017-2018,43,0.0,1,43
4813230,CEDAR HILL ISD,48,285 UPTOWN BLVD 300,CEDAR HILL,TX,75104,48,48113,Dallas County,32.5929,-96.9507,19100,"Dallas-Fort Worth-Arlington, TX",1,206,"Dallas-Fort Worth, TX-OK",N,N,4830,48109,48023,2017-2018,21,14.7,3,"12, 21, 41"
4813260,CELESTE ISD,48,207 S 5TH ST,CELESTE,TX,75423,48,48231,Hunt County,33.29208,-96.198541,19100,"Dallas-Fort Worth-Arlington, TX",1,206,"Dallas-Fort Worth, TX-OK",N,N,4804,48002,48002,2017-2018,42,0.0,1,42
4813290,CELINA ISD,48,205 S COLORADO,CELINA,TX,75009,48,48085,Collin County,33.32309,-96.787844,19100,"Dallas-Fort Worth-Arlington, TX",1,206,"Dallas-Fort Worth, TX-OK",N,N,4804,48070,48030,2017-2018,41,33.04,2,"22, 41"
4813320,CENTER ISD,48,107 PR 605,CENTER,TX,75935,48,48419,Shelby County,31.803700000000003,-94.2004,N,N,0,N,N,N,N,4801,48009,48003,2017-2018,33,21.27,2,"33, 41"
4813350,CENTER POINT ISD,48,215 CHINA ST,CENTER POINT,TX,78010,48,48265,Kerr County,29.941798,-99.033239,28500,"Kerrville, TX",2,N,N,N,N,4821,48053,48024,2017-2018,42,0.0,1,42
4813380,CENTERVILLE ISD,48,10327 N STATE HWY 94,GROVETON,TX,75845,48,48455,Trinity County,30.977,-95.3215,26660,"Huntsville, TX",2,288,"Houston-The Woodlands, TX",N,N,4808,48057,48003,2017-2018,43,0.0,1,43
4813410,CENTERVILLE ISD,48,813 S COMMERCE,CENTERVILLE,TX,75833,48,48289,Leon County,31.252321,-95.980429,N,N,0,N,N,N,N,4808,48057,48005,2017-2018,43,0.0,1,43
4813440,CENTRAL HEIGHTS ISD,48,10317 US HWY 259 N,NACOGDOCHES,TX,75965,48,48347,Nacogdoches County,31.706309,-94.67829,34860,"Nacogdoches, TX",2,N,N,N,N,4801,48011,48003,2017-2018,41,0.0,1,41
4813500,CENTRAL ISD,48,7622 US HWY 69 N,POLLOK,TX,75969,48,48005,Angelina County,31.4291,-94.812409,31260,"Lufkin, TX",2,N,N,N,N,4801,48057,48003,2017-2018,41,43.2,2,"41, 42"
4813530,LUMBERTON ISD,48,121 S MAIN,LUMBERTON,TX,77657,48,48199,Hardin County,30.255099,-94.197325,13140,"Beaumont-Port Arthur, TX",1,N,N,N,N,4836,48019,48003,2017-2018,22,0.0,1,22
4813590,CHANNELVIEW ISD,48,828 SHELDON RD,CHANNELVIEW,TX,77530,48,48201,Harris County,29.7918,-95.122111,26420,"Houston-The Woodlands-Sugar Land, TX",1,288,"Houston-The Woodlands, TX",N,N,4836,48143,48015,2017-2018,21,0.01,2,"11, 21"
4813620,CHANNING ISD,48,900 GREENWOOD AVE,CHANNING,TX,79018,48,48205,Hartley County,35.682913,-102.336842,N,N,0,N,N,N,N,4813,48086,48031,2017-2018,43,0.0,1,43
4813650,CHAPEL HILL ISD,48,11134 CR 2249,TYLER,TX,75707,48,48423,Smith County,32.31971,-95.189731,46340,"Tyler, TX",1,540,"Tyler-Jacksonville, TX",N,N,4801,48006,48001,2017-2018,41,0.0,1,41
4813680,CHAPEL HILL ISD,48,1069 CR 4660,MOUNT PLEASANT,TX,75455,48,48449,Titus County,33.111064,-94.885474,34420,"Mount Pleasant, TX",2,N,N,N,N,4804,48005,48001,2017-2018,42,0.0,1,42
4813710,CHARLOTTE ISD,48,102 E HINDES,CHARLOTTE,TX,78011,48,48013,Atascosa County,28.862181,-98.705814,41700,"San Antonio-New Braunfels, TX",1,N,N,N,N,4828,48031,48019,2017-2018,42,0.4,3,"32, 42, 43"
4813740,CHEROKEE ISD,48,305 S INDIAN AVE,CHEROKEE,TX,76832,48,48411,San Saba County,30.978991,-98.706943,N,N,0,N,N,N,N,4811,48059,48024,2017-2018,43,0.0,1,43
4813770,CHESTER ISD,48,273 YELLOWJACKET DR,CHESTER,TX,75936,48,48457,Tyler County,30.92863,-94.595465,N,N,0,N,N,N,N,4836,48019,48003,2017-2018,43,0.0,1,43
4813800,CHICO ISD,48,1120 PARK RD,CHICO,TX,76431,48,48497,Wise County,33.29257,-97.812911,19100,"Dallas-Fort Worth-Arlington, TX",1,206,"Dallas-Fort Worth, TX-OK",N,N,4813,48061,48030,2017-2018,42,0.0,1,42
4813860,CHILDRESS ISD,48,308 3RD ST NW,CHILDRESS,TX,79201,48,48075,Childress County,34.424449,-100.20793,N,N,0,N,N,N,N,4813,48068,48028,2017-2018,33,0.0,1,33
4813890,CHILLICOTHE ISD,48,1610 S 6TH ST,CHILLICOTHE,TX,79225,48,48197,Hardeman County,34.253072,-99.506846,N,N,0,N,N,N,N,4813,48068,48028,2017-2018,43,0.0,1,43
4813920,CHILTON ISD,48,905 DURANGO AVE,CHILTON,TX,76632,48,48145,Falls County,31.285282,-97.063066,47380,"Waco, TX",1,N,N,N,N,4817,48012,48022,2017-2018,42,0.2,2,"32, 42"
4813960,CHINA SPRING ISD,48,12166 YANKIE RD,CHINA SPRING,TX,76633,48,48309,McLennan County,31.632671,-97.283152,47380,"Waco, TX",1,N,N,N,N,4817,48056,48022,2017-2018,41,23.21,2,"12, 41"
4813980,CHIRENO ISD,48,901 MAIN ST,CHIRENO,TX,75937,48,48347,Nacogdoches County,31.496188,-94.350001,34860,"Nacogdoches, TX",2,N,N,N,N,4801,48011,48003,2017-2018,43,0.0,1,43
4814010,CHRISTOVAL ISD,48,20065 THIRD ST,CHRISTOVAL,TX,76935,48,48451,Tom Green County,31.191099,-100.496288,41660,"San Angelo, TX",1,N,N,N,N,4811,48072,48028,2017-2018,42,2.08,3,"12, 41, 42"
4814070,CISCO ISD,48,1503 LEGGETT,CISCO,TX,76437,48,48133,Eastland County,32.382511,-98.994473,N,N,0,N,N,N,N,4811,48060,48028,2017-2018,33,0.0,1,33
4814130,CITY VIEW ISD,48,1025 CITY VIEW DR,WICHITA FALLS,TX,76306,48,48485,Wichita County,33.936357,-98.553284,48660,"Wichita Falls, TX",1,N,N,N,N,4813,48069,48030,2017-2018,12,42.78,2,"12, 41"
4814160,CLARENDON ISD,48,416 S ALLEN,CLARENDON,TX,79226,48,48129,Donley County,34.939376,-100.896879,N,N,0,N,N,N,N,4813,48088,48031,2017-2018,43,0.0,1,43
4814190,CLARKSVILLE ISD,48,1500 W MAIN ST,CLARKSVILLE,TX,75426,48,48387,Red River County,33.60962,-95.063941,N,N,0,N,N,N,N,4804,48001,48001,2017-2018,33,0.0,1,33
4814250,CLAUDE ISD,48,500 W 5 ST,CLAUDE,TX,79019,48,48011,Armstrong County,35.106225,-101.366322,11100,"Amarillo, TX",1,108,"Amarillo-Borger, TX",N,N,4813,48088,48031,2017-2018,42,0.0,1,42
4814280,CLEAR CREEK ISD,48,2425 E MAIN ST,LEAGUE CITY,TX,77573,48,48167,Galveston County,29.5281,-95.0726,26420,"Houston-The Woodlands-Sugar Land, TX",1,288,"Houston-The Woodlands, TX",N,N,4814,48024,48011,2017-2018,21,22.95,4,"11, 21, 22, 41"
4814310,CLEBURNE ISD,48,505 N RIDGEWAY STE 100,CLEBURNE,TX,76033,48,48251,Johnson County,32.345607,-97.412668,19100,"Dallas-Fort Worth-Arlington, TX",1,206,"Dallas-Fort Worth, TX-OK",N,N,4825,48058,48022,2017-2018,41,44.3,2,"31, 41"
4814370,CLEVELAND ISD,48,316 E DALLAS ST,CLEVELAND,TX,77327,48,48291,Liberty County,30.3387,-95.087741,26420,"Houston-The Woodlands-Sugar Land, TX",1,288,"Houston-The Woodlands, TX",N,N,4836,48018,48003,2017-2018,31,19.25,2,"31, 41"
4814400,CLIFTON ISD,48,1102 KEY AVE,CLIFTON,TX,76634,48,48035,Bosque County,31.789436,-97.589983,N,N,0,N,N,N,N,4825,48058,48022,2017-2018,32,0.0,1,32
4814430,CLINT ISD,48,14521 HORIZON BLVD,EL PASO,TX,79928,48,48141,El Paso County,31.68422,-106.183581,21340,"El Paso, TX",1,238,"El Paso-Las Cruces, TX-NM",N,N,4816,48075,48029,2017-2018,21,19.67,3,"11, 21, 41"
4814450,CLYDE CISD,48,526 SHALIMAR DR,CLYDE,TX,79510,48,48059,Callahan County,32.416167,-99.521306,10180,"Abilene, TX",1,N,N,N,N,4811,48060,48024,2017-2018,32,28.17,2,"32, 41"
4814490,COAHOMA ISD,48,600 N MAIN,COAHOMA,TX,79511,48,48227,Howard County,32.30284,-101.30563,13700,"Big Spring, TX",2,N,N,N,N,4819,48072,48031,2017-2018,42,0.0,1,42
4814520,COLDSPRING-OAKHURST CISD,48,14210 HWY 150 W,COLDSPRING,TX,77331,48,48407,San Jacinto County,30.58074,-95.137341,N,N,0,N,N,N,N,4808,48018,48003,2017-2018,42,0.0,1,42
4814550,COLEMAN ISD,48,2302 S COMMERCIAL AVE,COLEMAN,TX,76834,48,48083,Coleman County,31.811819,-99.423091,N,N,0,N,N,N,N,4811,48060,48028,2017-2018,33,0.0,1,33
4814580,COLLINSVILLE ISD,48,500 REEVES,COLLINSVILLE,TX,76233,48,48181,Grayson County,33.557912,-96.906534,43300,"Sherman-Denison, TX",1,206,"Dallas-Fort Worth, TX-OK",N,N,4804,48062,48030,2017-2018,42,0.0,1,42
4814600,COLMESNEIL ISD,48,610 W ELDER,COLMESNEIL,TX,75938,48,48457,Tyler County,30.908323000000003,-94.429716,N,N,0,N,N,N,N,4836,48019,48003,2017-2018,42,0.0,1,42
4814640,COLORADO ISD,48,534 E 11TH ST,COLORADO CITY,TX,79512,48,48335,Mitchell County,32.397631000000004,-100.860757,N,N,0,N,N,N,N,4811,48083,48028,2017-2018,41,1.61,2,"33, 41"
4814670,COLUMBIA-BRAZORIA ISD,48,521 S 16TH ST,WEST COLUMBIA,TX,77486,48,48039,Brazoria County,29.137502,-95.650609,26420,"Houston-The Woodlands-Sugar Land, TX",1,288,"Houston-The Woodlands, TX",N,N,4814,48025,48017,2017-2018,32,45.06,3,"31, 32, 41"
4814700,COLUMBUS ISD,48,105 CARDINAL LN,COLUMBUS,TX,78934,48,48089,Colorado County,29.70548,-96.563824,N,N,0,N,N,N,N,4810,48013,48018,2017-2018,33,23.98,3,"33, 41, 43"
4814730,COMAL ISD,48,1404 IH 35 N,NEW BRAUNFELS,TX,78130,48,48091,Comal County,29.704906,-98.08903,41700,"San Antonio-New Braunfels, TX",1,N,N,N,N,4835,48073,48025,2017-2018,41,56.91,4,"13, 21, 41, 42"
4814760,COMANCHE ISD,48,200 E HIGHLAND,COMANCHE,TX,76442,48,48093,Comanche County,31.903409,-98.601704,N,N,0,N,N,N,N,4811,48059,48024,2017-2018,41,29.46,2,"33, 41"
4814790,COMFORT ISD,48,327 HIGH ST,COMFORT,TX,78013,48,48259,Kendall County,29.970052000000003,-98.914056,41700,"San Antonio-New Braunfels, TX",1,N,N,N,N,4821,48073,48025,2017-2018,32,30.18,2,"32, 41"
4814820,COMMERCE ISD,48,3315 WASHINGTON ST,COMMERCE,TX,75428,48,48231,Hunt County,33.227560000000004,-95.900611,19100,"Dallas-Fort Worth-Arlington, TX",1,206,"Dallas-Fort Worth, TX-OK",N,N,4804,48002,48002,2017-2018,41,21.86,2,"32, 41"
4814850,COMMUNITY ISD,48,611 N FM 1138,NEVADA,TX,75173,48,48085,Collin County,33.062311,-96.365183,19100,"Dallas-Fort Worth-Arlington, TX",1,206,"Dallas-Fort Worth, TX-OK",N,N,4804,48089,48030,2017-2018,41,23.57,4,"21, 22, 41, 42"
4814880,COMO-PICKTON CISD,48,13017 TX HWY 11 E,COMO,TX,75431,48,48223,Hopkins County,33.035597,-95.429604,44860,"Sulphur Springs, TX",2,206,"Dallas-Fort Worth, TX-OK",N,N,4804,48002,48002,2017-2018,42,0.0,1,42
4814920,COMSTOCK ISD,48,101 SANDERSON ST,COMSTOCK,TX,78837,48,48465,Val Verde County,29.68096,-101.17225,19620,"Del Rio, TX",2,N,N,N,N,4823,48074,48019,2017-2018,43,0.0,1,43
4814970,CONNALLY ISD,48,200 CADET WAY,WACO,TX,76705,48,48309,McLennan County,31.64431,-97.099151,47380,"Waco, TX",1,N,N,N,N,4817,48012,48022,2017-2018,22,45.01,3,"12, 22, 41"
4815000,CONROE ISD,48,3205 W DAVIS,CONROE,TX,77304,48,48339,Montgomery County,30.320576000000003,-95.486046,26420,"Houston-The Woodlands-Sugar Land, TX",1,288,"Houston-The Woodlands, TX",N,N,4808,48016,48004,2017-2018,13,43.87,4,"11, 13, 22, 41"
4815120,COOLIDGE ISD,48,1002 KIRVEN ST,COOLIDGE,TX,76635,48,48293,Limestone County,31.748056,-96.655377,N,N,0,N,N,N,N,4817,48012,48005,2017-2018,42,0.0,1,42
4815150,COOPER ISD,48,350 W MCKINNEY,COOPER,TX,75432,48,48119,Delta County,33.371725,-95.690669,N,N,0,N,N,N,N,4804,48062,48002,2017-2018,43,0.0,1,43
4815180,LUBBOCK-COOPER ISD,48,16302 LOOP 493,LUBBOCK,TX,79423,48,48303,Lubbock County,33.449025,-101.845954,31180,"Lubbock, TX",1,352,"Lubbock-Levelland, TX",N,N,4819,48083,48028,2017-2018,41,25.89,3,"11, 22, 41"
4815210,COPPELL ISD,48,200 S DENTON TAP RD,COPPELL,TX,75019,48,48113,Dallas County,32.9657,-96.9934,19100,"Dallas-Fort Worth-Arlington, TX",1,206,"Dallas-Fort Worth, TX-OK",N,N,4824,48115,48016,2017-2018,21,11.51,3,"11, 12, 21"
4815240,COPPERAS COVE ISD,48,703 W AVE D,COPPERAS COVE,TX,76522,48,48099,Coryell County,31.130408000000003,-97.913248,28660,"Killeen-Temple, TX",1,N,N,N,N,4825,48059,48024,2017-2018,22,27.09,2,"22, 41"
4815270,CORPUS CHRISTI ISD,48,801 LEOPARD ST,CORPUS CHRISTI,TX,78401,48,48355,Nueces County,27.796,-97.39892,18580,"Corpus Christi, TX",1,204,"Corpus Christi-Kingsville-Alice, TX",N,N,4827,48034,48020,2017-2018,11,0.0,1,11
4815300,CORRIGAN-CAMDEN ISD,48,504 S HOME ST,CORRIGAN,TX,75939,48,48373,Polk County,30.991563000000003,-94.826302,N,N,0,N,N,N,N,4836,48019,48003,2017-2018,43,0.0,1,43
4815330,CORSICANA ISD,48,2200 W 4TH AVE,CORSICANA,TX,75110,48,48349,Navarro County,32.084311,-96.488201,18620,"Corsicana, TX",2,206,"Dallas-Fort Worth, TX-OK",N,N,4806,48008,48022,2017-2018,32,28.05,2,"32, 41"
4815360,COTTON CENTER ISD,48,2345 FM 179,COTTON CENTER,TX,79021,48,48189,Hale County,33.985631,-101.992543,38380,"Plainview, TX",2,N,N,N,N,4819,48088,48028,2017-2018,42,0.0,1,42
4815400,COTULLA ISD,48,310 N MAIN ST,COTULLA,TX,78014,48,48283,La Salle County,28.439919,-99.223039,N,N,0,N,N,N,N,4823,48031,48021,2017-2018,33,35.22,3,"33, 41, 43"
4815420,COUPLAND ISD,48,620 S COMMERCE,COUPLAND,TX,78615,48,48491,Williamson County,30.453691000000003,-97.390717,12420,"Austin-Round Rock, TX",1,N,N,N,N,4831,48052,48005,2017-2018,42,0.0,1,42
4815480,COVINGTON ISD,48,501 N MAIN ST,COVINGTON,TX,76636,48,48217,Hill County,32.182483,-97.257395,N,N,0,N,N,N,N,4825,48008,48022,2017-2018,42,0.33,2,"32, 42"
4815510,CRANDALL ISD,48,400 W LEWIS ST,CRANDALL,TX,75114,48,48257,Kaufman County,32.623258,-96.458002,19100,"Dallas-Fort Worth-Arlington, TX",1,206,"Dallas-Fort Worth, TX-OK",N,N,4805,48004,48002,2017-2018,41,15.87,2,"31, 41"
4815540,CRANE ISD,48,511 W 8TH ST,CRANE,TX,79731,48,48103,Crane County,31.394568,-102.354415,N,N,0,N,N,N,N,4823,48082,48028,2017-2018,32,0.0,1,32
4815570,CRANFILLS GAP ISD,48,505 S 2ND ST,CRANFILLS GAP,TX,76637,48,48035,Bosque County,31.769811,-97.824805,N,N,0,N,N,N,N,4825,48058,48022,2017-2018,43,0.0,1,43
4815600,CRAWFORD ISD,48,200 PIRATE DR,CRAWFORD,TX,76638,48,48309,McLennan County,31.532058000000003,-97.450909,47380,"Waco, TX",1,N,N,N,N,4817,48056,48022,2017-2018,42,0.36,2,"12, 42"
4815690,CROCKETT COUNTY CONSOLIDATED CSD,48,797 AVE D,OZONA,TX,76943,48,48105,Crockett County,30.712495,-101.200639,N,N,0,N,N,N,N,4823,48053,48019,2017-2018,33,0.0,1,33
4815720,CROCKETT ISD,48,1400 W AUSTIN ST,CROCKETT,TX,75835,48,48225,Houston County,31.314055,-95.448263,N,N,0,N,N,N,N,4808,48057,48003,2017-2018,33,0.0,1,33
4815750,CROSBY ISD,48,706 RUNNEBURG,CROSBY,TX,77532,48,48201,Harris County,29.9117,-95.0613,26420,"Houston-The Woodlands-Sugar Land, TX",1,288,"Houston-The Woodlands, TX",N,N,4836,48128,48004,2017-2018,41,19.12,3,"11, 21, 41"
4815810,CROSS PLAINS ISD,48,700 N MAIN,CROSS PLAINS,TX,76443,48,48059,Callahan County,32.131342000000004,-99.16478,10180,"Abilene, TX",1,N,N,N,N,4811,48060,48024,2017-2018,43,0.0,1,43
4815840,CROSS ROADS ISD,48,14434 FM 59,MALAKOFF,TX,75148,48,48213,Henderson County,32.05146,-95.967272,11980,"Athens, TX",2,206,"Dallas-Fort Worth, TX-OK",N,N,4805,48004,48003,2017-2018,42,0.0,1,42
4815870,CROWELL ISD,48,400 E LOGAN,CROWELL,TX,79227,48,48155,Foard County,33.990649000000005,-99.719714,N,N,0,N,N,N,N,4813,48069,48028,2017-2018,43,0.0,1,43
4815910,CROWLEY ISD,48,512 PEACH ST,CROWLEY,TX,76036,48,48439,Tarrant County,32.576371,-97.364426,19100,"Dallas-Fort Worth-Arlington, TX",1,206,"Dallas-Fort Worth, TX-OK",N,N,4806,48096,48010,2017-2018,11,53.29,3,"11, 21, 41"
4815930,CRYSTAL CITY ISD,48,613 W ZAVALA ST,CRYSTAL CITY,TX,78839,48,48507,Zavala County,28.682080000000003,-99.831161,N,N,0,N,N,N,N,4823,48080,48019,2017-2018,33,0.0,1,33
4815960,CUERO ISD,48,960 E BROADWAY,CUERO,TX,77954,48,48123,DeWitt County,29.089669,-97.279114,N,N,0,N,N,N,N,4834,48030,48018,2017-2018,32,0.0,1,32
4815990,CULBERSON COUNTY-ALLAMOORE ISD,48,801 N FANNIN ST,VAN HORN,TX,79855,48,48109,Culberson County,31.047948,-104.835251,N,N,0,N,N,N,N,4823,48074,48029,2017-2018,43,0.0,1,43
4816020,CUMBY ISD,48,303 SAYLE ST,CUMBY,TX,75433,48,48223,Hopkins County,33.1349,-95.84563,44860,"Sulphur Springs, TX",2,206,"Dallas-Fort Worth, TX-OK",N,N,4804,48002,48002,2017-2018,42,0.0,1,42
4816080,CUSHING ISD,48,1088 W BEARKAT DR,CUSHING,TX,75760,48,48347,Nacogdoches County,31.8194,-94.8367,34860,"Nacogdoches, TX",2,N,N,N,N,4801,48011,48003,2017-2018,43,0.0,1,43
4816110,CYPRESS-FAIRBANKS ISD,48,10300 JONES RD,HOUSTON,TX,77065,48,48201,Harris County,29.922756,-95.583673,26420,"Houston-The Woodlands-Sugar Land, TX",1,288,"Houston-The Woodlands, TX",N,N,4802,48135,48007,2017-2018,21,18.09,3,"11, 21, 41"
4816140,D'HANIS ISD,48,6751 CR 5216,D'HANIS,TX,78850,48,48325,Medina County,29.331441,-99.272069,41700,"San Antonio-New Braunfels, TX",1,N,N,N,N,4823,48053,48019,2017-2018,42,0.0,1,42
4816180,DAINGERFIELD-LONE STAR ISD,48,200 TIGER DR,DAINGERFIELD,TX,75638,48,48343,Morris County,33.036149,-94.714716,N,N,0,N,N,N,N,4804,48005,48001,2017-2018,32,0.0,1,32
4816200,DALHART ISD,48,701 E 10TH,DALHART,TX,79022,48,48111,Dallam County,36.05642,-102.515666,N,N,0,N,N,N,N,4813,48086,48031,2017-2018,41,49.1,2,"33, 41"
4816230,DALLAS ISD,48,9400 N CENTRAL EXPY,DALLAS,TX,75231,48,48113,Dallas County,32.87655,-96.768441,19100,"Dallas-Fort Worth-Arlington, TX",1,206,"Dallas-Fort Worth, TX-OK",N,N,4832,48114,48016,2017-2018,11,5.32,3,"11, 21, 41"
4816260,DAMON ISD,48,1211 MULCAHY ST COUNTY RD 264,DAMON,TX,77430,48,48039,Brazoria County,29.289118,-95.740551,26420,"Houston-The Woodlands-Sugar Land, TX",1,288,"Houston-The Woodlands, TX",N,N,4814,48025,48017,2017-2018,42,0.0,1,42
4816290,DANBURY ISD,48,5611 PANTHER DR,DANBURY,TX,77534,48,48039,Brazoria County,29.223696,-95.341777,26420,"Houston-The Woodlands-Sugar Land, TX",1,288,"Houston-The Woodlands, TX",N,N,4814,48025,48011,2017-2018,41,0.0,1,41
4816320,DARROUZETT ISD,48,102 W KANSAS,DARROUZETT,TX,79024,48,48295,Lipscomb County,36.447431,-100.325595,N,N,0,N,N,N,N,4813,48088,48031,2017-2018,43,0.0,1,43
4816350,DAWSON ISD,48,600 BROWNFIELD HWY 137,WELCH,TX,79377,48,48115,Dawson County,32.931403,-102.127043,29500,"Lamesa, TX",2,N,N,N,N,4811,48082,48028,2017-2018,43,0.0,1,43
4816380,DAWSON ISD,48,199 N SCHOOL AVE,DAWSON,TX,76639,48,48349,Navarro County,31.897555,-96.710343,18620,"Corsicana, TX",2,206,"Dallas-Fort Worth, TX-OK",N,N,4806,48008,48022,2017-2018,43,0.21,2,"32, 43"
4816410,DAYTON ISD,48,100 CHERRY CREEK RD,DAYTON,TX,77535,48,48291,Liberty County,30.060341,-94.900876,26420,"Houston-The Woodlands-Sugar Land, TX",1,288,"Houston-The Woodlands, TX",N,N,4836,48018,48003,2017-2018,32,46.73,2,"32, 41"
4816440,DE LEON ISD,48,425 S TEXAS ST,DE LEON,TX,76444,48,48093,Comanche County,32.1058,-98.5379,N,N,0,N,N,N,N,4811,48059,48024,2017-2018,43,0.0,1,43
4816500,DECATUR ISD,48,307 S CATES,DECATUR,TX,76234,48,48497,Wise County,33.39809,-97.518854,19100,"Dallas-Fort Worth-Arlington, TX",1,206,"Dallas-Fort Worth, TX-OK",N,N,4813,48061,48030,2017-2018,32,32.39,2,"32, 41"
4816530,DEER PARK ISD,48,2800 TEXAS AVE,DEER PARK,TX,77536,48,48201,Harris County,29.684172,-95.13104,26420,"Houston-The Woodlands-Sugar Land, TX",1,288,"Houston-The Woodlands, TX",N,N,4836,48128,48011,2017-2018,21,0.0,1,21
4816570,DEKALB ISD,48,101 W MAPLE ST,DEKALB,TX,75559,48,48037,Bowie County,33.507116,-94.623122,45500,"Texarkana, TX-AR",1,N,N,N,N,4804,48001,48001,2017-2018,42,0.0,1,42
4816620,DEL VALLE ISD,48,5301 ROSS RD,DEL VALLE,TX,78617,48,48453,Travis County,30.176004,-97.613364,12420,"Austin-Round Rock, TX",1,N,N,N,N,4835,48051,48021,2017-2018,41,25.53,3,"11, 21, 41"
4816650,DELL CITY ISD,48,110 N MAIN ST,DELL CITY,TX,79837,48,48229,Hudspeth County,31.942627,-105.200843,21340,"El Paso, TX",1,238,"El Paso-Las Cruces, TX-NM",N,N,4823,48074,48029,2017-2018,43,0.0,1,43
4816710,DENISON ISD,48,1201 S RUSK AVE,DENISON,TX,75020,48,48181,Grayson County,33.74401,-96.539961,43300,"Sherman-Denison, TX",1,206,"Dallas-Fort Worth, TX-OK",N,N,4804,48062,48030,2017-2018,13,28.17,2,"13, 41"
4816740,DENTON ISD,48,1307 N LOCUST ST,DENTON,TX,76201,48,48121,Denton County,33.2252,-97.1323,19100,"Dallas-Fort Worth-Arlington, TX",1,206,"Dallas-Fort Worth, TX-OK",N,N,4826,48064,48030,2017-2018,12,42.21,4,"12, 21, 31, 41"
4816770,DENVER CITY ISD,48,501 MUSTANG AVE,DENVER CITY,TX,79323,48,48501,Yoakum County,32.969322,-102.836431,N,N,0,N,N,N,N,4819,48088,48031,2017-2018,33,0.0,1,33
4816860,DESOTO ISD,48,200 E BELT LINE RD,DESOTO,TX,75115,48,48113,Dallas County,32.5897,-96.8547,19100,"Dallas-Fort Worth-Arlington, TX",1,206,"Dallas-Fort Worth, TX-OK",N,N,4830,48109,48023,2017-2018,21,0.01,2,"11, 21"
4816890,DETROIT ISD,48,110 E GARNER AVE,DETROIT,TX,75436,48,48387,Red River County,33.661826,-95.265459,N,N,0,N,N,N,N,4804,48001,48001,2017-2018,43,0.0,1,43
4816920,DEVERS ISD,48,201 S CHISM,DEVERS,TX,77538,48,48291,Liberty County,30.026111,-94.590546,26420,"Houston-The Woodlands-Sugar Land, TX",1,288,"Houston-The Woodlands, TX",N,N,4836,48018,48003,2017-2018,42,0.0,1,42
4816950,DEVINE ISD,48,605 W HONDO,DEVINE,TX,78016,48,48325,Medina County,29.143581,-98.911706,41700,"San Antonio-New Braunfels, TX",1,N,N,N,N,4823,48053,48019,2017-2018,41,47.07,2,"32, 41"
4816980,DEW ISD,48,606 CR 481,TEAGUE,TX,75860,48,48161,Freestone County,31.595513,-96.143406,N,N,0,N,N,N,N,4817,48008,48005,2017-2018,42,0.0,1,42
4817010,DEWEYVILLE ISD,48,43200 STATE HWY 87 S,ORANGE,TX,77632,48,48351,Newton County,30.26806,-93.784814,13140,"Beaumont-Port Arthur, TX",1,N,N,N,N,4836,48019,48003,2017-2018,42,0.0,1,42
4817040,DIBOLL ISD,48,215 N TEMPLE BLVD,DIBOLL,TX,75941,48,48005,Angelina County,31.18576,-94.781876,31260,"Lufkin, TX",2,N,N,N,N,4801,48057,48003,2017-2018,33,49.47,2,"33, 41"
4817070,DICKINSON ISD,48,2218 E FM 517,DICKINSON,TX,77539,48,48167,Galveston County,29.4605,-95.0573,26420,"Houston-The Woodlands-Sugar Land, TX",1,288,"Houston-The Woodlands, TX",N,N,4814,48024,48011,2017-2018,22,48.07,3,"21, 22, 41"
4817100,DILLEY ISD,48,245 W FM 117,DILLEY,TX,78017,48,48163,Frio County,28.6748,-99.172899,N,N,0,N,N,N,N,4823,48080,48019,2017-2018,33,30.58,2,"33, 41"
4817130,DIME BOX ISD,48,1079 STEPHEN F AUSTIN BLVD,DIME BOX,TX,77853,48,48287,Lee County,30.3576,-96.8268,N,N,0,N,N,N,N,4810,48017,48018,2017-2018,43,0.0,1,43
4817160,DIMMITT ISD,48,608 W HALSELL ST,DIMMITT,TX,79027,48,48069,Castro County,34.555773,-102.31966,N,N,0,N,N,N,N,4819,48088,48031,2017-2018,33,0.0,1,33
4817190,DIVIDE ISD,48,120 DIVIDE SCHOOL RD,MOUNTAIN HOME,TX,78058,48,48265,Kerr County,30.118056000000003,-99.618157,28500,"Kerrville, TX",2,N,N,N,N,4821,48053,48024,2017-2018,43,0.0,1,43
4817280,DODD CITY ISD,48,602 N MAIN ST,DODD CITY,TX,75438,48,48147,Fannin County,33.578119,-96.074413,14300,"Bonham, TX",2,206,"Dallas-Fort Worth, TX-OK",N,N,4804,48062,48002,2017-2018,42,0.0,1,42
4817390,DONNA ISD,48,116 N 10TH ST,DONNA,TX,78537,48,48215,Hidalgo County,26.172026,-98.052808,32580,"McAllen-Edinburg-Mission, TX",1,365,"McAllen-Edinburg, TX",N,N,4834,48039,48027,2017-2018,21,7.21,3,"12, 21, 41"
4817400,DOSS CONSOLIDATED CSD,48,11431 RANCH RD 648,DOSS,TX,78618,48,48171,Gillespie County,30.444374,-99.130167,23240,"Fredericksburg, TX",2,N,N,N,N,4821,48073,48024,2017-2018,43,0.0,1,43
4817460,DOUGLASS ISD,48,20712 S FM 225,DOUGLASS,TX,75943,48,48347,Nacogdoches County,31.665827,-94.882439,34860,"Nacogdoches, TX",2,N,N,N,N,4801,48011,48003,2017-2018,43,0.21,2,"33, 43"
4817550,DRISCOLL ISD,48,315 W DRAGON ST,DRISCOLL,TX,78351,48,48355,Nueces County,27.671077,-97.754168,18580,"Corpus Christi, TX",1,204,"Corpus Christi-Kingsville-Alice, TX",N,N,4827,48034,48020,2017-2018,42,0.0,1,42
4817580,DUBLIN ISD,48,420 N POST OAK,DUBLIN,TX,76446,48,48143,Erath County,32.089330000000004,-98.337681,44500,"Stephenville, TX",2,N,N,N,N,4811,48059,48030,2017-2018,41,0.0,1,41
4817610,DUMAS ISD,48,421 W 4TH ST,DUMAS,TX,79029,48,48341,Moore County,35.862065,-101.977565,20300,"Dumas, TX",2,N,N,N,N,4813,48087,48031,2017-2018,33,0.0,1,33
